"population","pop2024","pop2023","pop2022","pop2020","pop2010","growth","region","city","usps","state","countyFips","county","densityMi","slug","areaMi","lng","lat","type","rank"
3795936,3795936,3820914,3822782,3895848,3795206,-0.00654,"Southeast","Los Angeles","CA","California","6037","Los Angeles County",8068,"california/los-angeles",470.517,-118.411,34.0194,"City",1
1388996,1388996,1388320,1387378,1386292,1305632,0.00049,"Southeast","San Diego","CA","California","6073","San Diego County",4260,"california/san-diego",326.087,-117.136,32.815,"City",2
956433,956433,969655,972082,1009319,954552,-0.01364,"West","San Jose","CA","California","6085","Santa Clara County",5375,"california/san-jose",177.939,-121.815,37.296,"City",3
788478,788478,808988,807774,870518,805519,-0.02535,"Northwest","San Francisco","CA","California","6075","San Francisco County",16884,"california/san-francisco",46.7,-123.032,37.7272,"City",4
546718,546718,545716,545253,542710,497763,0.00184,"Central","Fresno","CA","California","6019","Fresno County",4720,"california/fresno",115.818,-119.793,36.7827,"City",5
526669,526669,526384,525297,525528,467246,0.00054,"Northwest","Sacramento","CA","California","6067","Sacramento County",5339,"california/sacramento",98.646,-121.468,38.5677,"City",6
444095,444095,449468,452931,465585,462311,-0.01195,"Southeast","Long Beach","CA","California","6037","Los Angeles County",8764,"california/long-beach",50.672,-118.168,33.7808,"City",7
435024,435024,436504,434568,440943,391350,-0.00339,"Northwest","Oakland","CA","California","6001","Alameda County",7773,"california/oakland",55.963,-122.226,37.7698,"City",8
416081,416081,413381,412269,405280,348760,0.00653,"South","Bakersfield","CA","California","6029","Kern County",2769,"california/bakersfield",150.273,-119.038,35.3532,"City",9
338463,338463,340512,342777,346658,337860,-0.00602,"Southeast","Anaheim","CA","California","6059","Orange County",6731,"california/anaheim",50.283,-117.759,33.8555,"City",10
320121,320121,318858,318991,315067,305417,0.00396,"Southeast","Riverside","CA","California","6065","Riverside County",3945,"california/riverside",81.149,-117.393,33.9381,"City",11
319065,319065,319543,320831,320976,292984,-0.0015,"Northwest","Stockton","CA","California","6077","San Joaquin County",5057,"california/stockton",63.095,-121.309,37.9772,"City",12
316691,316691,314621,312820,308411,214371,0.00658,"Southeast","Irvine","CA","California","6059","Orange County",4827,"california/irvine",65.613,-117.771,33.6784,"City",13
310304,310304,310539,310648,311244,325069,-0.00076,"Southeast","Santa Ana","CA","California","6059","Orange County",11335,"california/santa-ana",27.376,-117.883,33.7363,"City",14
273841,273841,274333,274823,275809,244744,-0.00179,"Southeast","Chula Vista","CA","California","6073","San Diego County",5517,"california/chula-vista",49.638,-117.015,32.6277,"City",15
224800,224800,226208,226305,230430,214514,-0.00622,"West","Fremont","CA","California","6001","Alameda County",2878,"california/fremont",78.103,-121.941,37.4945,"City",16
224274,224274,223728,221111,222090,210484,0.00244,"Southeast","San Bernardino","CA","California","6071","San Bernardino County",3611,"california/san-bernardino",62.1,-117.295,34.1411,"City",17
221235,221235,224028,227123,232406,208802,-0.01247,"Southeast","Santa Clarita","CA","California","6037","Los Angeles County",3005,"california/santa-clarita",73.614,-118.501,34.4165,"City",18
218989,218989,218915,218344,218691,203278,0.00034,"West","Modesto","CA","California","6099","Stanislaus County",5051,"california/modesto",43.358,-121.003,37.6375,"City",19
217561,217561,215465,214317,209177,197216,0.00973,"Southeast","Fontana","CA","California","6071","San Bernardino County",5027,"california/fontana",43.278,-117.463,34.1097,"City",20
213566,213566,212392,211648,208868,194168,0.00553,"Southeast","Moreno Valley","CA","California","6065","Riverside County",4162,"california/moreno-valley",51.31,-117.206,33.9233,"City",21
197347,197347,198488,200193,201911,198541,-0.00575,"South","Oxnard","CA","California","6111","Ventura County",7434,"california/oxnard",26.545,-119.208,34.1994,"City",22
190037,190037,192129,194195,198405,191080,-0.01089,"Southeast","Huntington Beach","CA","California","6059","Orange County",7043,"california/huntington-beach",26.982,-118.004,33.698,"City",23
184705,184705,182457,180500,175712,164380,0.01232,"Southeast","Ontario","CA","California","6071","San Bernardino County",3695,"california/ontario",49.984,-117.604,34.0376,"City",24
184088,184088,187050,189175,195934,191729,-0.01584,"Southeast","Glendale","CA","California","6037","Los Angeles County",6040,"california/glendale",30.479,-118.246,34.1814,"City",25
179069,179069,178444,178009,176569,153417,0.0035,"Northwest","Elk Grove","CA","California","6067","Sacramento County",4203,"california/elk-grove",42.601,-121.385,38.4146,"City",26
175140,175140,175845,176078,177959,175221,-0.00401,"Northwest","Santa Rosa","CA","California","6097","Sonoma County",4117,"california/santa-rosa",42.536,-122.706,38.4458,"City",27
174312,174312,174405,174989,174683,166361,-0.00053,"Southeast","Rancho Cucamonga","CA","California","6071","San Bernardino County",3748,"california/rancho-cucamonga",46.51,-117.566,34.1303,"City",28
168705,168705,170020,171408,173965,167944,-0.00773,"Southeast","Oceanside","CA","California","6073","San Diego County",4088,"california/oceanside",41.268,-117.306,33.2246,"City",29
167024,167024,168234,169398,171863,171073,-0.00719,"Southeast","Garden Grove","CA","California","6059","Orange County",9303,"california/garden-grove",17.953,-117.96,33.7788,"City",30
163950,163950,166236,167815,173094,156897,-0.01375,"Southeast","Lancaster","CA","California","6037","Los Angeles County",1739,"california/lancaster",94.282,-118.175,34.6936,"City",31
162674,162674,159135,155940,148516,119960,0.02224,"Northwest","Roseville","CA","California","6061","Placer County",3690,"california/roseville",44.087,-121.32,38.7703,"City",32
161161,161161,160238,159803,157468,152883,0.00576,"Southeast","Corona","CA","California","6065","Riverside County",4040,"california/corona",39.892,-117.565,33.862,"City",33
158907,158907,161404,162975,168895,152761,-0.01547,"Southeast","Palmdale","CA","California","6037","Los Angeles County",1498,"california/palmdale",106.064,-118.105,34.591,"City",34
158211,158211,159506,160720,163391,150798,-0.00812,"Southwest","Salinas","CA","California","6053","Monterey County",6728,"california/salinas",23.515,-121.634,36.6902,"City",35
153344,153344,155675,156371,162666,144662,-0.01497,"West","Hayward","CA","California","6001","Alameda County",3347,"california/hayward",45.818,-122.104,37.6268,"City",36
150872,150872,151967,151682,155250,140786,-0.00721,"West","Sunnyvale","CA","California","6085","Santa Clara County",6839,"california/sunnyvale",22.06,-122.026,37.3858,"City",37
147158,147158,148122,149034,151014,144433,-0.00651,"Southeast","Escondido","CA","California","6073","San Diego County",3940,"california/escondido",37.348,-117.074,33.1331,"City",38
146073,146073,144998,143714,141771,124764,0.00741,"South","Visalia","CA","California","6107","Tulare County",3827,"california/visalia",38.171,-119.329,36.328,"City",39
143674,143674,145502,146333,150984,149293,-0.01256,"Southeast","Pomona","CA","California","6037","Los Angeles County",6251,"california/pomona",22.984,-117.761,34.0585,"City",40
140279,140279,138869,137430,134638,116306,0.01015,"Southeast","Victorville","CA","California","6071","San Bernardino County",1903,"california/victorville",73.71,-117.354,34.5277,"City",41
137965,137965,138337,138003,139451,137009,-0.00269,"Southeast","Orange","CA","California","6059","Orange County",5375,"california/orange",25.667,-117.861,33.787,"City",42
137911,137911,139250,140390,143267,135251,-0.00962,"Southeast","Fullerton","CA","California","6059","Orange County",6151,"california/fullerton",22.42,-117.928,33.8857,"City",43
136818,136818,139224,140901,146442,145315,-0.01728,"Southeast","Torrance","CA","California","6037","Los Angeles County",6669,"california/torrance",20.516,-118.357,33.8305,"City",44
131926,131926,133560,134492,138462,137540,-0.01223,"Southeast","Pasadena","CA","California","6037","Los Angeles County",5746,"california/pasadena",22.96,-118.138,34.1606,"City",45
131886,131886,131062,128859,128588,116857,0.00629,"West","Santa Clara","CA","California","6085","Santa Clara County",7216,"california/santa-clara",18.277,-121.968,37.3646,"City",46
127511,127511,125826,124873,120770,96360,0.01339,"Central","Clovis","CA","California","6019","Fresno County",4932,"california/clovis",25.852,-119.685,36.829,"City",47
124703,124703,125113,124849,126343,124424,-0.00328,"Southeast","Simi Valley","CA","California","6111","Ventura County",3002,"california/simi-valley",41.542,-118.748,34.2669,"City",48
122342,122342,123463,124529,126824,126688,-0.00908,"Southeast","Thousand Oaks","CA","California","6111","Ventura County",2214,"california/thousand-oaks",55.257,-118.874,34.1933,"City",49
121778,121778,122807,123686,125894,116118,-0.00838,"Northwest","Vallejo","CA","California","6095","Solano County",4001,"california/vallejo",30.435,-122.262,38.1069,"City",50
121324,121324,122315,123112,125286,122440,-0.0081,"Northwest","Concord","CA","California","6013","Contra Costa County",3969,"california/concord",30.568,-122.002,37.9722,"City",51
121079,121079,120768,119957,119833,105652,0.00258,"Northwest","Fairfield","CA","California","6095","Solano County",2912,"california/fairfield",41.586,-122.032,38.2621,"City",52
117668,117668,117096,115780,115379,103062,0.00488,"Northwest","Antioch","CA","California","6013","Contra Costa County",4034,"california/antioch",29.171,-121.796,37.9783,"City",53
117214,117214,118962,118715,124205,112938,-0.01469,"Northwest","Berkeley","CA","California","6001","Alameda County",11236,"california/berkeley",10.432,-122.299,37.8657,"City",54
116834,116834,113433,110378,103228,78115,0.02998,"Southeast","Menifee","CA","California","6065","Riverside County",2515,"california/menifee",46.464,-117.184,33.6899,"City",55
115676,115676,116449,117222,120504,126496,-0.00664,"Southeast","East Los Angeles","CA","California","6037","Los Angeles County",15521,"california/east-los-angeles",7.453,-118.169,34.0315,"CDP",56
113409,113409,114106,114944,116196,103666,-0.00611,"Northwest","Richmond","CA","California","6013","Contra Costa County",3775,"california/richmond",30.042,-122.361,37.9523,"City",57
113018,113018,113495,114275,114924,105768,-0.0042,"Southeast","Carlsbad","CA","California","6073","San Diego County",2989,"california/carlsbad",37.812,-117.284,33.1293,"City",58
112122,112122,111878,112076,111146,104175,0.00218,"Southeast","Murrieta","CA","California","6065","Riverside County",3343,"california/murrieta",33.536,-117.19,33.5721,"City",59
110878,110878,110682,110860,110094,100598,0.00177,"Southeast","Temecula","CA","California","6065","Riverside County",2982,"california/temecula",37.177,-117.132,33.4931,"City",60
110055,110055,109987,110088,109782,99633,0.00062,"Southwest","Santa Maria","CA","California","6083","Santa Barbara County",4825,"california/santa-maria",22.81,-120.444,34.9331,"City",61
108537,108537,109058,108900,110620,107053,-0.00478,"South","San Buenaventura (Ventura)","CA","California","6111","Ventura County",4962,"california/san-buenaventura-ventura",21.873,-119.254,34.2678,"City",62
107976,107976,107321,107113,105356,95350,0.0061,"Southeast","Jurupa Valley","CA","California","6065","Riverside County",2515,"california/jurupa-valley",42.94,-117.468,34.0026,"City",63
107211,107211,108354,109548,111781,110137,-0.01055,"Southeast","Costa Mesa","CA","California","6059","Orange County",6783,"california/costa-mesa",15.806,-117.912,33.6659,"City",64
107100,107100,108816,109932,113964,111766,-0.01577,"Southeast","Downey","CA","California","6037","Los Angeles County",8631,"california/downey",12.409,-118.131,33.9382,"City",65
104438,104438,105617,105703,109153,106097,-0.01116,"Southeast","West Covina","CA","California","6037","Los Angeles County",6513,"california/west-covina",16.036,-117.91,34.0559,"City",66
103162,103162,103391,103853,104077,99567,-0.00221,"Southeast","Rialto","CA","California","6071","San Bernardino County",4282,"california/rialto",24.092,-117.389,34.1174,"City",67
102670,102670,102526,101956,102092,92530,0.0014,"Northwest","Vacaville","CA","California","6095","Solano County",3437,"california/vacaville",29.87,-121.969,38.3586,"City",68
102029,102029,103794,105052,109087,113562,-0.017,"Southeast","El Monte","CA","California","6037","Los Angeles County",10676,"california/el-monte",9.557,-118.029,34.0746,"City",69
101963,101963,102991,104042,106075,99815,-0.00998,"Southeast","El Cajon","CA","California","6073","San Diego County",7027,"california/el-cajon",14.51,-116.96,32.8017,"City",70
101355,101355,102865,103847,107393,109610,-0.01468,"Southeast","Inglewood","CA","California","6037","Los Angeles County",11178,"california/inglewood",9.067,-118.344,33.9561,"City",71
101338,101338,102755,103507,107005,103573,-0.01379,"Southeast","Burbank","CA","California","6037","Los Angeles County",5852,"california/burbank-los-angeles-county",17.316,-118.326,34.1901,"City",72
100849,100849,100633,100489,99984,90262,0.00215,"Southeast","Hesperia","CA","California","6071","San Bernardino County",1388,"california/hesperia",72.681,-117.315,34.397,"City",73
100816,100816,101301,101758,102755,89049,-0.00479,"Northwest","Chico","CA","California","6007","Butte County",2920,"california/chico",34.521,-121.818,39.7589,"City",74
99884,99884,101327,101567,105656,97256,-0.01424,"West","San Mateo","CA","California","6081","San Mateo County",8232,"california/san-mateo",12.134,-122.311,37.5603,"City",75
99473,99473,98010,96783,93620,83605,0.01493,"Northwest","Tracy","CA","California","6077","San Joaquin County",3777,"california/tracy",26.337,-121.452,37.7274,"City",76
98289,98289,98344,98881,98508,93353,-0.00056,"Southeast","Vista","CA","California","6073","San Diego County",5243,"california/vista",18.746,-117.239,33.1897,"City",77
98158,98158,99833,100329,104858,101456,-0.01678,"West","Daly City","CA","California","6081","San Mateo County",12851,"california/daly-city",7.638,-122.469,37.6862,"City",78
96724,96724,96400,96076,93719,92186,0.00336,"Northwest","Arden-Arcade","CA","California","6067","Sacramento County",6085,"california/arden-arcade",15.895,-121.385,38.6006,"CDP",79
96635,96635,98078,99079,102405,105532,-0.01471,"Southeast","Norwalk","CA","California","6037","Los Angeles County",9955,"california/norwalk",9.707,-118.083,33.9076,"City",80
95958,95958,93692,92088,86893,79097,0.02419,"West","Merced","CA","California","6047","Merced County",4127,"california/merced",23.254,-120.478,37.3057,"City",81
94302,94302,93057,91672,89320,79679,0.01338,"Southeast","Indio","CA","California","6065","Riverside County",2842,"california/indio",33.183,-116.236,33.7316,"City",82
93967,93967,94188,93895,94849,83948,-0.00235,"Southeast","San Marcos","CA","California","6073","San Diego County",3824,"california/san-marcos",24.571,-117.17,33.1326,"City",83
93806,93806,93114,93055,91038,78604,0.00743,"Southeast","Chino","CA","California","6071","San Bernardino County",3172,"california/chino",29.574,-117.658,33.978,"City",84
93409,93409,91059,88669,84009,67749,0.02581,"Northwest","Manteca","CA","California","6077","San Joaquin County",4361,"california/manteca",21.42,-121.226,37.7928,"City",85
93197,93197,92368,91288,89881,79105,0.00897,"Southeast","Hemet","CA","California","6065","Riverside County",3185,"california/hemet",29.262,-116.997,33.7341,"City",86
92466,92466,92727,92959,93510,89916,-0.00281,"Northwest","Redding","CA","California","6089","Shasta County",1555,"california/redding",59.469,-122.367,40.5703,"City",87
89722,89722,91139,92113,95388,91562,-0.01555,"Southeast","Carson","CA","California","6037","Los Angeles County",4790,"california/carson",18.731,-118.25,33.8404,"City",88
89679,89679,90624,91515,93457,93144,-0.01043,"Southeast","Mission Viejo","CA","California","6059","Orange County",5078,"california/mission-viejo",17.66,-117.656,33.6093,"City",89
89516,89516,90986,91829,95394,96428,-0.01616,"Southeast","Compton","CA","California","6037","Los Angeles County",8927,"california/compton",10.027,-118.227,33.894,"City",90
89206,89206,90070,91055,92660,94384,-0.00959,"Southeast","South Gate","CA","California","6037","Los Angeles County",12326,"california/south-gate",7.237,-118.193,33.9442,"City",91
88925,88925,89922,90216,92913,89788,-0.01109,"Southeast","Santa Monica","CA","California","6037","Los Angeles County",10575,"california/santa-monica",8.409,-118.498,34.0109,"City",92
88015,88015,88729,89497,90871,89575,-0.00805,"Southeast","Westminster","CA","California","6059","Orange County",8767,"california/westminster",10.039,-117.994,33.7523,"City",93
86108,86108,84782,83241,80804,72133,0.01564,"Northwest","Folsom","CA","California","6067","Sacramento County",3088,"california/folsom",27.881,-121.142,38.6666,"City",94
85811,85811,85840,85923,85927,77506,-0.00034,"Southeast","Lake Forest","CA","California","6059","Orange County",5134,"california/lake-forest",16.714,-117.676,33.6549,"City",95
85804,85804,86239,86527,87544,83188,-0.00504,"Northwest","Citrus Heights","CA","California","6067","Sacramento County",6036,"california/citrus-heights",14.216,-121.288,38.6948,"City",96
85744,85744,86499,87316,88762,88544,-0.00873,"South","Santa Barbara","CA","California","6083","Santa Barbara County",4400,"california/santa-barbara",19.489,-119.714,34.4036,"City",97
84446,84446,84929,85490,86377,71784,-0.00569,"Northwest","San Ramon","CA","California","6013","Contra Costa County",4210,"california/san-ramon",20.059,-121.932,37.7653,"City",98
84137,84137,85784,86521,90724,85108,-0.0192,"West","San Leandro","CA","California","6001","Alameda County",6315,"california/san-leandro",13.323,-122.163,37.7034,"City",99
83597,83597,82605,81618,79628,65019,0.01201,"Northwest","Rancho Cordova","CA","California","6067","Sacramento County",2418,"california/rancho-cordova",34.569,-121.236,38.5771,"City",100
83163,83163,84143,84940,87081,85309,-0.01165,"Southeast","Whittier","CA","California","6037","Los Angeles County",5677,"california/whittier",14.649,-118.02,33.9668,"City",101
81890,81890,83364,84433,87784,84268,-0.01768,"Southeast","Hawthorne","CA","California","6037","Los Angeles County",13453,"california/hawthorne",6.087,-118.348,33.9148,"City",102
81794,81794,82637,83446,85164,85262,-0.0102,"Southeast","Newport Beach","CA","California","6059","Orange County",3437,"california/newport-beach",23.797,-117.89,33.5973,"City",103
81458,81458,81785,81853,82766,73759,-0.004,"West","Mountain View","CA","California","6085","Santa Clara County",6812,"california/mountain-view",11.958,-122.079,37.3997,"City",104
81324,81324,81958,82366,83859,80554,-0.00774,"Southeast","Buena Park","CA","California","6059","Orange County",7725,"california/buena-park",10.527,-118.007,33.8574,"City",105
81252,81252,82908,84111,87875,81691,-0.01997,"West","Livermore","CA","California","6001","Alameda County",3058,"california/livermore",26.57,-121.76,37.687,"City",106
81193,81193,80603,79836,78831,69103,0.00732,"Southeast","Perris","CA","California","6065","Riverside County",2572,"california/perris",31.563,-117.222,33.7898,"City",107
80874,80874,79509,78144,75642,61762,0.01717,"Northwest","Carmichael","CA","California","6067","Sacramento County",5274,"california/carmichael",15.334,-121.326,38.6308,"CDP",108
80032,80032,80996,81237,83887,77042,-0.0119,"West","Redwood City","CA","California","6081","San Mateo County",4139,"california/redwood-city",19.336,-122.214,37.5153,"City",109
78817,78817,79776,80323,82652,83107,-0.01202,"Southeast","Alhambra","CA","California","6037","Los Angeles County",10329,"california/alhambra",7.631,-118.136,34.0836,"City",110
78583,78583,78699,79120,79046,73865,-0.00147,"Southeast","Upland","CA","California","6071","San Bernardino County",5043,"california/upland",15.584,-117.66,34.1161,"City",111
76971,76971,77704,78393,79902,75365,-0.00943,"Southeast","Tustin","CA","California","6059","Orange County",6920,"california/tustin",11.123,-117.811,33.7309,"City",112
76878,76878,77492,78092,79334,77187,-0.00792,"Northwest","Napa","CA","California","6055","Napa County",4260,"california/napa",18.048,-122.301,38.2979,"City",113
76797,76797,77212,77784,78456,74958,-0.00537,"Southeast","Chino Hills","CA","California","6071","San Bernardino County",1720,"california/chino-hills",44.65,-117.726,33.943,"City",114
76772,76772,78135,79108,82224,80070,-0.01744,"Southeast","Lakewood","CA","California","6037","Los Angeles County",8172,"california/lakewood",9.394,-118.122,33.8471,"City",115
76497,76497,77321,76882,79792,66694,-0.01066,"West","Milpitas","CA","California","6085","Santa Clara County",5674,"california/milpitas",13.481,-121.891,37.4331,"City",116
75619,75619,75803,75528,76354,63475,-0.00243,"Northwest","Pittsburg","CA","California","6013","Contra Costa County",4278,"california/pittsburg",17.676,-121.897,38.0168,"City",117
74762,74762,75036,75345,75858,69310,-0.00365,"Southeast","Apple Valley","CA","California","6071","San Bernardino County",971,"california/apple-valley",77.006,-117.21,34.5334,"Town",118
74434,74434,75353,75637,78109,73901,-0.0122,"Northwest","Alameda","CA","California","6001","Alameda County",7158,"california/alameda",10.399,-122.26,37.7419,"City",119
74038,74038,73472,73155,71772,57482,0.0077,"Northwest","Rocklin","CA","California","6061","Placer County",3737,"california/rocklin",19.81,-121.25,38.8069,"City",120
73849,73849,73028,72783,70563,53590,0.01124,"Southeast","Lake Elsinore","CA","California","6065","Riverside County",1930,"california/lake-elsinore",38.269,-117.335,33.686,"City",121
73841,73841,75122,76047,78965,76616,-0.01705,"Southeast","Bellflower","CA","California","6037","Los Angeles County",12071,"california/bellflower",6.117,-118.127,33.8878,"City",122
72982,72982,74653,75830,79665,70363,-0.02238,"West","Pleasanton","CA","California","6001","Alameda County",3023,"california/pleasanton",24.141,-121.881,37.6672,"City",123
72329,72329,72556,72886,73235,68841,-0.00313,"Southeast","Redlands","CA","California","6071","San Bernardino County",2009,"california/redlands",36.011,-117.17,34.0535,"City",124
71884,71884,72100,72192,72747,68733,-0.003,"West","Turlock","CA","California","6099","Stanislaus County",4280,"california/turlock",16.797,-120.859,37.5055,"City",125
71678,71678,71092,70718,69333,59431,0.00824,"South","Tulare","CA","California","6107","Tulare County",3466,"california/tulare",20.678,-119.342,36.1994,"City",126
70666,70666,70510,70724,70041,53668,0.00221,"Southeast","Eastvale","CA","California","6065","Riverside County",5573,"california/eastvale",12.679,-117.582,33.9633,"City",127
69110,69110,69514,69901,70725,65484,-0.00581,"South","Camarillo","CA","California","6111","Ventura County",3511,"california/camarillo",19.686,-119.032,34.2218,"City",128
68804,68804,69152,69369,70196,64376,-0.00503,"Northwest","Walnut Creek","CA","California","6013","Contra Costa County",3482,"california/walnut-creek",19.76,-122.04,37.9027,"City",129
68598,68598,68079,67594,66522,61998,0.00762,"West","Madera","CA","California","6039","Madera County",3481,"california/madera",19.707,-120.086,36.9658,"City",130
68193,68193,68666,69223,70084,65615,-0.00689,"Northwest","Yuba City","CA","California","6101","Sutter County",4115,"california/yuba-city",16.57,-121.642,39.1298,"City",131
68092,68092,67679,67559,66438,62242,0.0061,"Northwest","Lodi","CA","California","6077","San Joaquin County",4977,"california/lodi",13.681,-121.291,38.1216,"City",132
68067,68067,69128,69842,72311,46048,-0.01535,"Northwest","Dublin","CA","California","6001","Alameda County",4470,"california/dublin",15.229,-121.896,37.7161,"City",133
67760,67760,68806,69455,71944,75409,-0.0152,"Southeast","Baldwin Park","CA","California","6037","Los Angeles County",10217,"california/baldwin-park",6.632,-117.971,34.0828,"City",134
66552,66552,67749,68611,71339,66873,-0.01767,"Southeast","Redondo Beach","CA","California","6037","Los Angeles County",10738,"california/redondo-beach",6.198,-118.401,33.8495,"City",135
66120,66120,65782,65444,64392,61388,0.00514,"Northwest","Castro Valley","CA","California","6001","Alameda County",3925,"california/castro-valley",16.848,-122.063,37.7083,"CDP",136
65477,65477,65832,66747,66897,65626,-0.00539,"Northwest","Davis","CA","California","6113","Yolo County",6566,"california/davis",9.972,-121.738,38.5561,"City",137
65455,65455,66147,66816,68223,64341,-0.01046,"Southeast","Yorba Linda","CA","California","6059","Orange County",3280,"california/yorba-linda",19.953,-117.772,33.889,"City",138
65350,65350,65126,64836,64453,51854,0.00344,"Northwest","Brentwood","CA","California","6013","Contra Costa County",4396,"california/brentwood",14.865,-121.719,37.9356,"City",139
65057,65057,65882,66132,68357,64506,-0.01252,"West","Palo Alto","CA","California","6085","Santa Clara County",2705,"california/palo-alto",24.051,-122.143,37.3965,"City",140
63909,63909,65414,66463,69927,69628,-0.02301,"West","Union City","CA","California","6001","Alameda County",3295,"california/union-city",19.398,-122.019,37.6028,"City",141
63090,63090,63111,63132,64787,63387,-0.00033,"Southeast","Florence-Graham","CA","California","6037","Los Angeles County",17979,"california/florence-graham",3.509,-118.245,33.9682,"CDP",142
62891,62891,62876,62836,62831,58225,0.00024,"South","Porterville","CA","California","6107","Tulare County",3347,"california/porterville",18.79,-119.034,36.0635,"City",143
62353,62353,62899,63635,64536,63064,-0.00868,"Southeast","Laguna Niguel","CA","California","6059","Orange County",4231,"california/laguna-niguel",14.736,-117.701,33.5287,"City",144
62196,62196,63123,63073,65902,63674,-0.01469,"West","South San Francisco","CA","California","6081","San Mateo County",6757,"california/south-san-francisco",9.204,-122.376,37.6551,"City",145
62044,62044,63234,63818,66804,69564,-0.01882,"Southeast","Lynwood","CA","California","6037","Los Angeles County",12816,"california/lynwood",4.841,-118.202,33.924,"City",146
61679,61679,62313,62933,64213,63556,-0.01017,"Southeast","San Clemente","CA","California","6059","Orange County",3360,"california/san-clemente",18.356,-117.613,33.4491,"City",147
61174,61174,61123,61791,60969,55558,0.00083,"Northwest","Woodland","CA","California","6113","Yolo County",3994,"california/woodland",15.315,-121.75,38.6712,"City",148
61021,61021,61501,61709,62941,60593,-0.0078,"West","Santa Cruz","CA","California","6087","Santa Cruz County",4790,"california/santa-cruz",12.74,-122.035,36.9744,"City",149
60455,60455,60841,61281,61997,59638,-0.00634,"Southeast","Encinitas","CA","California","6073","San Diego County",3172,"california/encinitas",19.056,-117.264,33.0506,"City",150
60350,60350,60537,60605,61097,57347,-0.00309,"Southeast","La Mesa","CA","California","6073","San Diego County",6638,"california/la-mesa",9.092,-117.022,32.7695,"City",151
60320,60320,60991,61607,63002,61502,-0.011,"Southeast","La Habra","CA","California","6059","Orange County",7980,"california/la-habra",7.559,-117.952,33.9279,"City",152
60205,60205,59938,59600,59135,54511,0.00445,"South","Hanford","CA","California","6031","Kings County",3361,"california/hanford",17.914,-119.655,36.3277,"City",153
60182,60182,58463,55995,53304,37408,0.0294,"Southeast","Beaumont","CA","California","6065","Riverside County",1984,"california/beaumont",30.332,-116.953,33.8767,"City",154
59349,59349,59478,59172,59864,53677,-0.00217,"Southeast","Santee","CA","California","6073","San Diego County",3589,"california/santee",16.537,-116.986,32.855,"City",155
59209,59209,60015,60356,62433,62513,-0.01343,"Southeast","Montebello","CA","California","6037","Los Angeles County",7110,"california/montebello",8.328,-118.111,34.0154,"City",156
59027,59027,59555,60084,61137,57765,-0.00887,"Northwest","San Rafael","CA","California","6041","Marin County",3559,"california/san-rafael",16.587,-122.507,37.981,"City",157
58489,58489,58800,58794,59733,58048,-0.00529,"Northwest","Petaluma","CA","California","6097","Sonoma County",4058,"california/petaluma",14.415,-122.629,38.2423,"City",158
58291,58291,59189,59830,61881,62955,-0.01517,"Southeast","Pico Rivera","CA","California","6037","Los Angeles County",7010,"california/pico-rivera",8.315,-118.089,33.9895,"City",159
57867,57867,58250,57759,59398,49139,-0.00658,"West","Gilroy","CA","California","6085","Santa Clara County",3499,"california/gilroy",16.536,-121.585,37.0064,"City",160
57561,57561,58377,58831,60823,58828,-0.01398,"Southeast","Gardena","CA","California","6037","Los Angeles County",9875,"california/gardena",5.829,-118.308,33.8944,"City",161
57421,57421,57402,57383,58616,57156,0.00033,"Southeast","South Whittier","CA","California","6037","Los Angeles County",10757,"california/south-whittier",5.338,-118.031,33.9331,"CDP",162
56870,56870,57877,58580,60898,60260,-0.0174,"Southeast","Monterey Park","CA","California","6037","Los Angeles County",7413,"california/monterey-park",7.672,-118.133,34.0484,"City",163
56517,56517,55842,54882,53815,48875,0.01209,"Northwest","West Sacramento","CA","California","6113","Yolo County",2632,"california/west-sacramento",21.47,-121.549,38.5544,"City",164
56343,56343,57285,57661,60111,58677,-0.01644,"West","Cupertino","CA","California","6085","Santa Clara County",4969,"california/cupertino",11.34,-122.045,37.3194,"City",165
56060,56060,54538,52825,49970,43094,0.02791,"Northwest","Lincoln","CA","California","6061","Placer County",2319,"california/lincoln",24.17,-121.293,38.8745,"City",166
55933,55933,56202,56523,57009,53214,-0.00479,"Southeast","Highland","CA","California","6071","San Bernardino County",3012,"california/highland",18.571,-117.166,34.1135,"City",167
55854,55854,55440,55447,54197,44383,0.00747,"Southeast","San Jacinto","CA","California","6065","Riverside County",2159,"california/san-jacinto",25.873,-116.996,33.7989,"City",168
55698,55698,55580,55461,55386,54038,0.00212,"Southeast","Hacienda Heights","CA","California","6037","Los Angeles County",4994,"california/hacienda-heights",11.152,-117.973,33.9959,"CDP",169
54966,54966,55468,55836,56973,55385,-0.00905,"Southeast","Fountain Valley","CA","California","6059","Orange County",6060,"california/fountain-valley",9.071,-117.951,33.7106,"City",170
54910,54910,55236,55769,56213,58603,-0.0059,"Southeast","National City","CA","California","6073","San Diego County",7473,"california/national-city",7.348,-117.097,32.6659,"City",171
53733,53733,53947,54217,54589,51386,-0.00397,"Southeast","Yucaipa","CA","California","6071","San Bernardino County",1902,"california/yucaipa",28.258,-117.043,34.0336,"City",172
53375,53375,54157,54731,56502,56244,-0.01444,"Southeast","Arcadia","CA","California","6037","Los Angeles County",4885,"california/arcadia",10.927,-118.036,34.1327,"City",173
53151,53151,53357,53735,53975,52220,-0.00386,"Southeast","Colton","CA","California","6071","San Bernardino County",3401,"california/colton",15.628,-117.325,34.0545,"City",174
52598,52598,52356,52361,51628,51429,0.00462,"Southeast","Cathedral City","CA","California","6065","Riverside County",2340,"california/cathedral-city",22.476,-116.463,33.8355,"City",175
52202,52202,51951,51781,51197,48726,0.00483,"Southeast","Palm Desert","CA","California","6065","Riverside County",1950,"california/palm-desert",26.777,-116.364,33.7376,"City",176
52046,52046,51500,51627,49860,53121,0.0106,"South","Delano","CA","California","6029","Kern County",3537,"california/delano",14.716,-119.264,35.7664,"City",177
52032,52032,52192,52029,52671,50937,-0.00307,"Southeast","Placentia","CA","California","6059","Orange County",7729,"california/placentia",6.732,-117.855,33.8812,"City",178
51248,51248,51722,52207,53142,51957,-0.00916,"Northwest","Novato","CA","California","6041","Marin County",1872,"california/novato",27.369,-122.548,38.0851,"City",179
51092,51092,52041,52744,54886,55559,-0.01824,"Southeast","Diamond Bar","CA","California","6037","Los Angeles County",3434,"california/diamond-bar",14.878,-117.818,34.0016,"City",180
51022,51022,51942,52591,54701,58121,-0.01771,"Southeast","Huntington Park","CA","California","6037","Los Angeles County",16968,"california/huntington-park",3.007,-118.217,33.9792,"City",181
50405,50405,50199,49992,48839,47513,0.0041,"Northwest","Florin","CA","California","6067","Sacramento County",5802,"california/florin",8.687,-121.404,38.4832,"CDP",182
50328,50328,50867,51438,52482,51215,-0.0106,"West","Watsonville","CA","California","6087","Santa Cruz County",7416,"california/watsonville",6.786,-121.772,36.9236,"City",183
50244,50244,49663,49082,47107,42108,0.0117,"Northwest","El Dorado Hills","CA","California","6017","El Dorado County",1037,"california/el-dorado-hills",48.462,-121.048,38.6761,"CDP",184
50238,50238,51072,51599,53572,54100,-0.01633,"Southeast","Paramount","CA","California","6037","Los Angeles County",10630,"california/paramount",4.726,-118.167,33.8989,"City",185
49928,49928,49244,48494,47191,45193,0.01389,"Southwest","San Luis Obispo","CA","California","6079","San Luis Obispo County",3707,"california/san-luis-obispo",13.469,-120.668,35.2662,"City",186
49659,49659,50263,50853,52073,47821,-0.01202,"Southeast","Aliso Viejo","CA","California","6059","Orange County",7170,"california/aliso-viejo",6.926,-117.729,33.5792,"City",187
49508,49508,48553,47956,45687,36167,0.01967,"West","Los Banos","CA","California","6047","Merced County",4952,"california/los-banos",9.997,-120.84,37.0632,"City",188
49109,49109,49934,50489,52408,50258,-0.01652,"Southeast","Glendora","CA","California","6037","Los Angeles County",2517,"california/glendora",19.51,-117.848,34.145,"City",189
48981,48981,48532,48083,48660,42694,0.00925,"Northwest","North Highlands","CA","California","6067","Sacramento County",5561,"california/north-highlands",8.808,-121.372,38.6713,"CDP",190
48889,48889,48479,47272,47247,39449,0.00846,"Southeast","Brea","CA","California","6059","Orange County",3866,"california/brea",12.647,-117.865,33.9252,"City",191
48725,48725,49305,49544,51043,53786,-0.01176,"Southeast","Rosemead","CA","California","6037","Los Angeles County",9439,"california/rosemead",5.162,-118.083,34.0689,"City",192
48360,48360,48782,49175,50047,47883,-0.00865,"Southeast","Cypress","CA","California","6059","Orange County",7312,"california/cypress",6.614,-118.038,33.8185,"City",193
48103,48103,48397,48677,49279,45932,-0.00607,"West","Ceres","CA","California","6099","Stanislaus County",5064,"california/ceres",9.499,-120.968,37.5988,"City",194
47939,47939,47784,47629,48468,45770,0.00324,"Northwest","Antelope","CA","California","6067","Sacramento County",7013,"california/antelope",6.836,-121.361,38.7153,"CDP",195
47914,47914,48728,49353,51170,47791,-0.0167,"Southeast","Covina","CA","California","6037","Los Angeles County",6811,"california/covina",7.035,-117.882,34.0905,"City",196
47805,47805,48051,48267,48788,47924,-0.00512,"Southeast","Poway","CA","California","6073","San Diego County",1223,"california/poway",39.078,-117.022,32.9877,"City",197
47629,47629,48272,48594,50200,46539,-0.01332,"Southeast","Azusa","CA","California","6037","Los Angeles County",4930,"california/azusa",9.661,-117.912,34.1385,"City",198
46912,46912,47060,47209,49914,48993,-0.00314,"Southeast","Rowland Heights","CA","California","6037","Los Angeles County",3587,"california/rowland-heights",13.077,-117.891,33.9703,"CDP",199
46733,46733,46929,46722,47517,42619,-0.00418,"West","Newark","CA","California","6001","Alameda County",3357,"california/newark",13.919,-122.032,37.5043,"City",200
46521,46521,45761,44932,43480,35638,0.01661,"Northwest","Oakley","CA","California","6013","Contra Costa County",2932,"california/oakley",15.866,-121.694,37.9961,"City",201
45929,45929,46797,47445,49399,49037,-0.01855,"Southeast","Cerritos","CA","California","6037","Los Angeles County",5263,"california/cerritos",8.727,-118.069,33.8677,"City",202
45627,45627,44142,42657,39800,24836,0.03364,"Northwest","Vineyard","CA","California","6067","Sacramento County",2434,"california/vineyard",18.748,-121.324,38.474,"CDP",203
45619,45619,46182,46732,47869,47877,-0.01219,"Southeast","Rancho Santa Margarita","CA","California","6059","Orange County",3529,"california/rancho-santa-margarita",12.928,-117.599,33.6323,"City",204
45583,45583,44658,44142,41882,35415,0.02071,"West","Hollister","CA","California","6069","San Benito County",5725,"california/hollister",7.962,-121.399,36.8556,"City",205
45404,45404,45218,45128,44660,44755,0.00411,"Southeast","Palm Springs","CA","California","6065","Riverside County",480,"california/palm-springs",94.539,-116.538,33.8034,"City",206
44729,44729,45505,46119,47831,48521,-0.01705,"Southeast","La Mirada","CA","California","6037","Los Angeles County",5717,"california/la-mirada",7.824,-118.009,33.902,"City",207
44572,44572,44546,44374,44467,41110,0.00058,"Northwest","Rohnert Park","CA","California","6097","Sonoma County",6117,"california/rohnert-park",7.286,-122.701,38.3476,"City",208
44268,44268,42753,41239,39057,23067,0.03544,"Southeast","French Valley","CA","California","6065","Riverside County",4072,"california/french-valley",10.871,-117.106,33.5995,"CDP",209
44117,44117,43590,42904,42008,41023,0.01209,"Southeast","Coachella","CA","California","6065","Riverside County",1475,"california/coachella",29.917,-116.143,33.6904,"City",210
44075,44075,44478,44678,45685,38103,-0.00906,"West","Morgan Hill","CA","California","6085","Santa Clara County",3407,"california/morgan-hill",12.938,-121.642,37.1325,"City",211
43548,43548,43772,43907,44444,42783,-0.00512,"Southeast","El Centro","CA","California","6025","Imperial County",3594,"california/el-centro",12.117,-115.56,32.7864,"City",212
43444,43444,39857,35080,29096,17781,0.09,"Northwest","Lathrop","CA","California","6077","San Joaquin County",2191,"california/lathrop",19.826,-121.318,37.8087,"City",213
42812,42812,42999,43253,43560,41965,-0.00435,"Northwest","Danville","CA","California","6013","Contra Costa County",2368,"california/danville",18.078,-121.97,37.8121,"Town",214
42709,42709,42714,42719,43037,42777,-0.00012,"Southeast","Altadena","CA","California","6037","Los Angeles County",5045,"california/altadena",8.465,-118.136,34.1922,"CDP",215
42592,42592,43045,43851,44402,42298,-0.01052,"Southwest","Lompoc","CA","California","6083","Santa Barbara County",3664,"california/lompoc",11.623,-120.471,34.6627,"City",216
41005,41005,41700,41975,43784,40672,-0.01667,"West","Campbell","CA","California","6085","Santa Clara County",6743,"california/campbell",6.081,-121.953,37.2802,"City",217
40520,40520,41327,41579,43746,41328,-0.01953,"West","San Bruno","CA","California","6081","San Mateo County",7382,"california/san-bruno",5.489,-122.431,37.6256,"City",218
39525,39525,39081,38521,37749,37628,0.01136,"Southeast","La Quinta","CA","California","6065","Riverside County",1120,"california/la-quinta",35.294,-116.275,33.6461,"City",219
39360,39360,38989,38618,37410,34169,0.00952,"Southeast","La Presa","CA","California","6073","San Diego County",7160,"california/la-presa",5.497,-117.004,32.7123,"CDP",220
39263,39263,39980,40515,42129,41685,-0.01793,"Southeast","Rancho Palos Verdes","CA","California","6037","Los Angeles County",2914,"california/rancho-palos-verdes",13.473,-118.37,33.7385,"City",221
39054,39054,38815,39100,38097,37863,0.00616,"Southeast","Stanton","CA","California","6059","Orange County",12586,"california/stanton",3.103,-117.993,33.8002,"City",222
38499,38499,39041,39444,40666,38821,-0.01388,"Southeast","Culver City","CA","California","6037","Los Angeles County",7531,"california/culver-city",5.112,-118.397,34.0058,"City",223
38387,38387,38011,37635,35711,33121,0.00989,"Northwest","Foothill Farms","CA","California","6067","Sacramento County",9140,"california/foothill-farms",4.2,-121.347,38.6867,"CDP",224
38209,38209,38187,37976,38120,31679,0.00058,"Southeast","Adelanto","CA","California","6071","San Bernardino County",723,"california/adelanto",52.867,-117.439,34.5809,"City",225
38104,38104,38224,38311,38582,38660,-0.00314,"Southeast","Calexico","CA","California","6025","Imperial County",4501,"california/calexico",8.466,-115.495,32.6849,"City",226
37413,37413,37545,37754,37941,36767,-0.00352,"Southeast","Montclair","CA","California","6071","San Bernardino County",6764,"california/montclair",5.531,-117.698,34.0715,"City",227
37154,37154,37732,38067,39464,39642,-0.01532,"Southeast","San Gabriel","CA","California","6037","Los Angeles County",8966,"california/san-gabriel",4.144,-118.098,34.0946,"City",228
37145,37145,37087,37057,36913,32369,0.00156,"Southeast","Wildomar","CA","California","6065","Riverside County",1564,"california/wildomar",23.744,-117.258,33.6173,"City",229
36828,36828,37467,37901,39382,42053,-0.01706,"Southeast","Bell Gardens","CA","California","6037","Los Angeles County",14977,"california/bell-gardens",2.459,-118.154,33.9644,"City",230
36356,36356,36768,37110,38003,36593,-0.01121,"Southeast","Monrovia","CA","California","6037","Los Angeles County",2667,"california/monrovia",13.632,-117.985,34.164,"City",231
36167,36167,36010,35852,35030,33960,0.00436,"Northwest","Orangevale","CA","California","6067","Sacramento County",3158,"california/orangevale",11.451,-121.223,38.6894,"CDP",232
36128,36128,36395,36563,37195,36150,-0.00734,"Northwest","Martinez","CA","California","6013","Contra Costa County",2858,"california/martinez",12.643,-122.114,37.9981,"City",233
36044,36044,36516,36863,37931,39827,-0.01293,"Southeast","La Puente","CA","California","6037","Los Angeles County",10363,"california/la-puente",3.478,-117.954,34.0323,"City",234
35927,35927,35636,35345,35188,31853,0.00817,"Southeast","Westmont","CA","California","6037","Los Angeles County",19452,"california/westmont",1.847,-118.302,33.9417,"CDP",235
35730,35730,36426,36557,38514,37388,-0.01911,"West","Pacifica","CA","California","6081","San Mateo County",2840,"california/pacifica",12.583,-122.477,37.6066,"City",236
35308,35308,35543,35656,36246,34668,-0.00661,"Southeast","Moorpark","CA","California","6111","Ventura County",2876,"california/moorpark",12.277,-118.877,34.2859,"City",237
35148,35148,34972,34796,35520,32684,0.00503,"South","Oildale","CA","California","6029","Kern County",4444,"california/oildale",7.909,-119.031,35.4293,"CDP",238
35124,35124,35640,36017,37187,34877,-0.01448,"Southeast","Claremont","CA","California","6037","Los Angeles County",2634,"california/claremont",13.335,-117.714,34.1249,"City",239
34978,34978,32479,29981,29885,0,0.07694,"Southeast","East Niles","CA","California","6029","Kern County",6409,"california/east-niles",5.458,-118.922,35.3683,"CDP",240
34619,34619,34754,34775,35159,34453,-0.00388,"Southeast","San Juan Capistrano","CA","California","6059","Orange County",2399,"california/san-juan-capistrano",14.43,-117.654,33.5009,"City",241
34490,34490,32027,29563,29823,0,0.0769,"South","Eastern Goleta Valley","CA","California","6083","Santa Barbara County",2080,"california/eastern-goleta-valley",16.585,-119.785,34.4439,"CDP",242
34344,34344,34854,35213,36383,35555,-0.01463,"Southeast","Temple City","CA","California","6037","Los Angeles County",8575,"california/temple-city",4.005,-118.058,34.1022,"City",243
34239,34239,33975,33710,32359,30534,0.00777,"Southeast","Fallbrook","CA","California","6073","San Diego County",1952,"california/fallbrook",17.541,-117.22,33.3742,"CDP",244
33916,33916,34349,34591,35646,34377,-0.01261,"Southeast","West Hollywood","CA","California","6037","Los Angeles County",17964,"california/west-hollywood",1.888,-118.372,34.0883,"City",245
33743,33743,33438,33098,32523,27223,0.00912,"Southeast","Desert Hot Springs","CA","California","6065","Riverside County",1120,"california/desert-hot-springs",30.126,-116.542,33.9576,"City",246
33534,33534,33802,34034,34604,33145,-0.00793,"Northwest","Pleasant Hill","CA","California","6013","Contra Costa County",4740,"california/pleasant-hill",7.075,-122.076,37.9542,"City",247
33211,33211,32854,32496,31866,28205,0.01087,"Southeast","Spring Valley","CA","California","6073","San Diego County",4523,"california/spring-valley-san-diego-county",7.342,-116.976,32.7299,"CDP",248
33061,33061,32908,32754,30882,30912,0.00465,"Northwest","Fair Oaks","CA","California","6067","Sacramento County",3040,"california/fair-oaks",10.876,-121.251,38.6502,"CDP",249
32932,32932,30579,28227,28420,0,0.07695,"Southeast","Temescal Valley","CA","California","6059","Orange County",1703,"california/temescal-valley",19.336,-117.467,33.758,"CDP",250
32697,32697,33369,33891,35383,35149,-0.02014,"Southeast","Manhattan Beach","CA","California","6037","Los Angeles County",8311,"california/manhattan-beach",3.934,-118.421,33.9009,"City",251
32632,32632,32665,32585,32764,30101,-0.00101,"South","Goleta","CA","California","6083","Santa Barbara County",4156,"california/goleta",7.852,-119.859,34.4354,"City",252
32541,32541,33105,33527,34797,33369,-0.01704,"Southeast","San Dimas","CA","California","6037","Los Angeles County",2164,"california/san-dimas",15.034,-117.809,34.108,"City",253
32403,32403,32567,32647,33057,33310,-0.00504,"Southeast","Dana Point","CA","California","6059","Orange County",4996,"california/dana-point",6.486,-117.693,33.4755,"City",254
32298,32298,31680,31220,29826,28794,0.01951,"Southeast","Banning","CA","California","6065","Riverside County",1390,"california/banning",23.236,-116.899,33.9459,"City",255
32131,32131,31792,31414,30773,29700,0.01066,"South","Santa Paula","CA","California","6111","Ventura County",5810,"california/santa-paula",5.53,-119.066,34.3549,"City",256
32092,32092,32052,32219,31931,28614,0.00125,"West","Atwater","CA","California","6047","Merced County",4887,"california/atwater",6.567,-120.597,37.354,"City",257
31816,31816,32216,32213,33415,29789,-0.01242,"West","Los Gatos","CA","California","6085","Santa Clara County",2754,"california/los-gatos",11.554,-121.957,37.2299,"Town",258
31662,31662,32180,32299,33733,30597,-0.0161,"West","Foster City","CA","California","6081","San Mateo County",8361,"california/foster-city",3.787,-122.251,37.5648,"City",259
31509,31509,31323,31137,31353,28905,0.00594,"Southwest","Orcutt","CA","California","6079","San Luis Obispo County",2912,"california/orcutt",10.822,-120.422,34.8692,"CDP",260
31335,31335,31864,32199,33449,35466,-0.0166,"Southeast","Bell","CA","California","6037","Los Angeles County",12494,"california/bell",2.508,-118.179,33.9797,"City",261
31023,31023,31690,31955,33690,32083,-0.02105,"West","Menlo Park","CA","California","6081","San Mateo County",3105,"california/menlo-park",9.99,-122.148,37.4797,"City",262
31017,31017,31134,31316,31484,29789,-0.00376,"Southwest","El Paso Robles (Paso Robles)","CA","California","6079","San Luis Obispo County",1557,"california/el-paso-robles-paso-robles",19.915,-120.65,35.6285,"City",263
30977,30977,31317,31488,32335,33178,-0.01086,"Southwest","Seaside","CA","California","6053","Monterey County",3472,"california/seaside",8.923,-121.818,36.6251,"City",264
30969,30969,31249,31514,32089,29462,-0.00896,"Northwest","San Pablo","CA","California","6013","Contra Costa County",11802,"california/san-pablo",2.624,-122.343,37.9629,"City",265
30810,30810,30285,29759,30117,23452,0.01734,"West","San Lorenzo","CA","California","6001","Alameda County",10115,"california/san-lorenzo",3.046,-122.136,37.6759,"CDP",266
30439,30439,30974,31350,32578,33919,-0.01727,"Southeast","Beverly Hills","CA","California","6037","Los Angeles County",5333,"california/beverly-hills",5.708,-118.402,34.0792,"City",267
29887,29887,30243,30591,31311,30696,-0.01177,"Southeast","Laguna Hills","CA","California","6059","Orange County",4564,"california/laguna-hills",6.548,-117.698,33.5912,"City",268
29685,29685,29700,29665,29744,28425,-0.00051,"Southwest","Atascadero","CA","California","6079","San Luis Obispo County",1139,"california/atascadero",26.071,-120.688,35.4857,"City",269
29628,29628,30155,30531,31734,32765,-0.01748,"Southeast","Lawndale","CA","California","6037","Los Angeles County",15024,"california/lawndale",1.972,-118.353,33.8884,"City",270
29536,29536,29990,30151,31350,29132,-0.01514,"West","Los Altos","CA","California","6085","Santa Clara County",4516,"california/los-altos",6.54,-122.097,37.3684,"City",271
29454,29454,29910,29822,31278,28847,-0.01525,"West","Burlingame","CA","California","6081","San Mateo County",6705,"california/burlingame",4.393,-122.363,37.59,"City",272
29373,29373,29898,30274,31472,30916,-0.01756,"Southeast","La Verne","CA","California","6037","Los Angeles County",3488,"california/la-verne",8.422,-117.77,34.1205,"City",273
29171,29171,29607,29727,30913,30115,-0.01473,"West","Saratoga","CA","California","6085","Santa Clara County",2283,"california/saratoga",12.779,-122.026,37.2683,"City",274
28956,28956,28734,29895,28067,25107,0.00773,"Southeast","Twentynine Palms","CA","California","6071","San Bernardino County",493,"california/twentynine-palms",58.748,-116.066,34.1478,"City",275
28784,28784,29116,29511,30111,28025,-0.0114,"Southwest","Monterey","CA","California","6053","Monterey County",3330,"california/monterey",8.645,-121.883,36.6012,"City",276
28498,28498,28743,28939,29478,28133,-0.00852,"Northwest","Suisun City","CA","California","6095","Solano County",7116,"california/suisun-city",4.005,-122.01,38.2483,"City",277
28295,28295,27849,27161,26509,25042,0.01601,"Southeast","Brawley","CA","California","6025","Imperial County",3498,"california/brawley",8.089,-115.529,32.9785,"City",278
28270,28270,28862,29098,30638,28300,-0.02051,"West","San Carlos","CA","California","6081","San Mateo County",5224,"california/san-carlos",5.412,-122.268,37.499,"City",279
28110,28110,28088,28244,28022,27705,0.00078,"Southeast","Ridgecrest","CA","California","6029","Kern County",1347,"california/ridgecrest",20.861,-117.664,35.6285,"City",280
27638,27638,28216,28400,29948,28220,-0.02048,"West","East Palo Alto","CA","California","6081","San Mateo County",10933,"california/east-palo-alto",2.528,-122.133,37.4678,"City",281
27558,27558,27569,27353,27602,25376,-0.0004,"Southeast","Lemon Grove","CA","California","6073","San Diego County",7104,"california/lemon-grove",3.879,-117.034,32.7331,"City",282
27430,27430,26917,27088,25376,25725,0.01906,"South","Wasco","CA","California","6029","Kern County",2922,"california/wasco",9.387,-119.367,35.5938,"City",283
26737,26737,26582,26174,26117,24140,0.00583,"Northwest","Hercules","CA","California","6013","Contra Costa County",4169,"california/hercules",6.413,-122.289,38.0214,"City",284
26705,26705,26809,27067,27121,24508,-0.00388,"South","Lemoore","CA","California","6031","Kings County",2954,"california/lemoore",9.041,-119.798,36.2944,"City",285
26689,26689,27104,27354,28348,29222,-0.01531,"Southeast","Walnut","CA","California","6037","Los Angeles County",2969,"california/walnut",8.989,-117.856,34.0372,"City",286
26244,26244,26343,26451,26640,24298,-0.00376,"Central","Sanger","CA","California","6019","Fresno County",4551,"california/sanger",5.767,-119.557,36.699,"City",287
26219,26219,25863,25578,24794,21595,0.01376,"South","Dinuba","CA","California","6107","Tulare County",3909,"california/dinuba",6.707,-119.399,36.5451,"City",288
26203,26203,26429,26617,27106,27058,-0.00855,"Northwest","Benicia","CA","California","6095","Solano County",2045,"california/benicia",12.813,-122.155,38.0727,"City",289
26196,26196,25958,25529,25243,24373,0.00917,"South","Reedley","CA","California","6019","Fresno County",4702,"california/reedley",5.571,-119.447,36.5984,"City",290
26076,26076,26622,26834,28258,25933,-0.02051,"West","Belmont","CA","California","6081","San Mateo County",5632,"california/belmont",4.63,-122.294,37.5144,"City",291
25909,25909,24750,23590,21387,9675,0.04683,"Northwest","Mountain House","CA","California","6001","Alameda County",5684,"california/mountain-house",4.558,-121.545,37.7673,"CDP",292
25805,25805,25767,25626,25652,23747,0.00147,"Northwest","Galt","CA","California","6067","Sacramento County",3297,"california/galt",7.826,-121.299,38.2685,"City",293
25657,25657,25828,26005,26340,26810,-0.00662,"Northwest","Windsor","CA","California","6097","Sonoma County",3450,"california/windsor",7.436,-122.809,38.5421,"Town",294
25480,25480,25734,26109,26496,27201,-0.00987,"Northwest","Eureka","CA","California","6023","Humboldt County",2663,"california/eureka",9.567,-124.154,40.7976,"City",295
25476,25476,25063,24744,23823,20650,0.01648,"West","Patterson","CA","California","6099","Stanislaus County",3272,"california/patterson",7.787,-121.154,37.4759,"City",296
25426,25426,25434,25442,26121,25540,-0.00031,"Southeast","West Whittier-Los Nietos","CA","California","6037","Los Angeles County",10090,"california/west-whittier-los-nietos",2.52,-118.069,33.976,"CDP",297
25422,25422,25552,25724,25941,23653,-0.00509,"Northwest","El Cerrito","CA","California","6013","Contra Costa County",6923,"california/el-cerrito-contra-costa-county",3.672,-122.303,37.9196,"City",298
25399,25399,25398,24959,25395,27234,0.00004,"Southeast","Norco","CA","California","6065","Riverside County",1833,"california/norco",13.857,-117.552,33.9255,"City",299
25243,25243,25458,25675,26102,26382,-0.00845,"Southeast","Imperial Beach","CA","California","6073","San Diego County",5884,"california/imperial-beach",4.29,-117.115,32.5691,"City",300
25215,25215,25623,25860,26845,25602,-0.01592,"Southeast","South Pasadena","CA","California","6037","Los Angeles County",7397,"california/south-pasadena",3.409,-118.157,34.109,"City",301
25185,25185,25111,25126,24887,23316,0.00295,"Southeast","Loma Linda","CA","California","6071","San Bernardino County",2882,"california/loma-linda",8.738,-117.249,34.0429,"City",302
25167,25167,25149,25131,25147,24917,0.00072,"Southeast","North Tustin","CA","California","6059","Orange County",3824,"california/north-tustin",6.581,-117.795,33.7635,"CDP",303
25042,25042,25001,24835,24876,22723,0.00164,"Northwest","Riverbank","CA","California","6099","Stanislaus County",5317,"california/riverbank",4.71,-120.945,37.726,"City",304
24933,24933,25048,25112,25392,23852,-0.00459,"Northwest","Lafayette","CA","California","6013","Contra Costa County",1660,"california/lafayette",15.024,-122.12,37.891,"City",305
24917,24917,24662,24407,25378,21349,0.01034,"Northwest","Bay Point","CA","California","6013","Contra Costa County",3878,"california/bay-point",6.426,-121.962,38.0323,"CDP",306
24886,24886,23514,22141,21977,5669,0.05835,"Southeast","West Rancho Dominguez","CA","California","6037","Los Angeles County",6267,"california/west-rancho-dominguez",3.971,-118.268,33.9043,"CDP",307
24815,24815,24964,25155,25411,22806,-0.00597,"Southeast","Barstow","CA","California","6071","San Bernardino County",601,"california/barstow",41.299,-117.043,34.867,"City",308
24547,24547,24435,24323,24996,22980,0.00458,"Southeast","Ladera Ranch","CA","California","6059","Orange County",4964,"california/ladera-ranch",4.945,-117.642,33.5491,"CDP",309
24398,24398,24467,24527,24672,23367,-0.00282,"South","Selma","CA","California","6019","Fresno County",4107,"california/selma",5.941,-119.614,36.5717,"City",310
24177,24177,23719,23262,21842,17773,0.01931,"Northwest","Linda","CA","California","6007","Butte County",2816,"california/linda",8.586,-121.542,39.1241,"CDP",311
24072,24072,24352,24636,25190,24176,-0.0115,"Southeast","Seal Beach","CA","California","6059","Orange County",2129,"california/seal-beach",11.305,-118.071,33.7544,"City",312
24039,24039,23942,23845,23755,22681,0.00405,"Northwest","Rosemont","CA","California","6067","Sacramento County",5480,"california/rosemont",4.387,-121.355,38.5477,"CDP",313
23951,23951,23302,22654,23076,14874,0.02785,"Southeast","East San Gabriel","CA","California","6037","Los Angeles County",11002,"california/east-san-gabriel",2.177,-118.08,34.1162,"CDP",314
23701,23701,23947,24058,24683,26026,-0.01027,"Southwest","Soledad","CA","California","6053","Monterey County",5314,"california/soledad",4.46,-121.318,36.4345,"City",315
23619,23619,23131,21723,21666,21322,0.0211,"Southeast","Duarte","CA","California","6037","Los Angeles County",3520,"california/duarte",6.709,-117.95,34.161,"City",316
23418,23418,23824,24124,25041,27377,-0.01704,"Southeast","Maywood","CA","California","6037","Los Angeles County",19981,"california/maywood",1.172,-118.188,33.9885,"City",317
23370,23370,23267,23164,23566,21925,0.00443,"West","Ashland","CA","California","6001","Alameda County",12680,"california/ashland",1.843,-122.116,37.6942,"CDP",318
23170,23170,23364,23482,23946,23649,-0.0083,"Southeast","San Fernando","CA","California","6037","Los Angeles County",9760,"california/san-fernando",2.374,-118.436,34.2887,"City",319
23015,23015,22833,22259,22287,19731,0.00797,"Southwest","Marina","CA","California","6053","Monterey County",2583,"california/marina",8.91,-121.789,36.6803,"City",320
22988,22988,23045,23174,23216,20796,-0.00247,"Northwest","Oakdale","CA","California","6099","Stanislaus County",3693,"california/oakdale",6.225,-120.846,37.7617,"City",321
22918,22918,22984,23051,21907,23851,-0.00287,"Southeast","Bloomington","CA","California","6071","San Bernardino County",3775,"california/bloomington",6.071,-117.401,34.0601,"CDP",322
22634,22634,22532,22430,21476,21208,0.00453,"Southeast","Rancho San Diego","CA","California","6073","San Diego County",2603,"california/rancho-san-diego",8.696,-116.92,32.7624,"CDP",323
22531,22531,21915,21015,20067,17174,0.02811,"South","Shafter","CA","California","6029","Kern County",582,"california/shafter",38.696,-119.201,35.4794,"City",324
22476,22476,22328,22180,22818,20402,0.00663,"Northwest","Granite Bay","CA","California","6061","Placer County",1043,"california/granite-bay",21.548,-121.168,38.7604,"CDP",325
22422,22422,22270,22118,21493,20292,0.00683,"Southeast","Ramona","CA","California","6073","San Diego County",583,"california/ramona",38.436,-116.878,33.0458,"CDP",326
22330,22330,22285,22240,22697,21699,0.00202,"Southeast","West Carson","CA","California","6037","Los Angeles County",9854,"california/west-carson",2.266,-118.294,33.8231,"CDP",327
22110,22110,22332,22547,22997,22760,-0.00994,"Southeast","Laguna Beach","CA","California","6059","Orange County",2486,"california/laguna-beach",8.895,-117.762,33.5434,"City",328
21980,21980,22027,22074,23555,22636,-0.00213,"Southeast","West Puente Valley","CA","California","6037","Los Angeles County",11754,"california/west-puente-valley",1.87,-117.967,34.0523,"CDP",329
21965,21965,21591,21516,20469,14817,0.01732,"Southeast","Imperial","CA","California","6025","Imperial County",3483,"california/imperial",6.306,-115.572,32.8388,"City",330
21944,21944,21852,21759,21032,20648,0.00421,"Southeast","Lakeside","CA","California","6073","San Diego County",3167,"california/lakeside-san-diego-county",6.929,-116.904,32.8566,"CDP",331
21887,21887,22227,22519,23246,23471,-0.0153,"Southeast","Calabasas","CA","California","6037","Los Angeles County",1597,"california/calabasas",13.708,-118.666,34.1343,"City",332
21822,21822,22044,22881,22708,24767,-0.01007,"South","Corcoran","CA","California","6031","Kings County",2926,"california/corcoran",7.458,-119.561,36.0841,"City",333
21807,21807,21880,21952,22665,22822,-0.00334,"Southeast","Valinda","CA","California","6037","Los Angeles County",10833,"california/valinda",2.013,-117.93,34.04,"CDP",334
21736,21736,22087,22050,23138,21594,-0.01589,"West","Millbrae","CA","California","6081","San Mateo County",6649,"california/millbrae",3.269,-122.402,37.599,"City",335
21630,21630,21664,21749,21766,20694,-0.00157,"Southeast","Yucca Valley","CA","California","6071","San Bernardino County",543,"california/yucca-valley",39.831,-116.422,34.1233,"Town",336
21435,21435,21377,21320,22785,20631,0.00271,"Southeast","Winter Gardens","CA","California","6073","San Diego County",4850,"california/winter-gardens",4.42,-116.927,32.8375,"CDP",337
21391,21391,21723,21905,22719,23806,-0.01528,"Southeast","Cudahy","CA","California","6037","Los Angeles County",18190,"california/cudahy",1.176,-118.183,33.964,"City",338
21196,21196,21347,21611,21799,19617,-0.00707,"Northwest","American Canyon","CA","California","6055","Napa County",3488,"california/american-canyon",6.076,-122.26,38.179,"City",339
21195,21195,20634,20526,18951,16373,0.02719,"Southwest","Greenfield","CA","California","6053","Monterey County",7129,"california/greenfield-monterey-county",2.973,-121.244,36.324,"City",340
21071,21071,20863,20654,20255,18150,0.00997,"Southeast","Rosamond","CA","California","6029","Kern County",404,"california/rosamond",52.122,-118.215,34.8656,"CDP",341
21004,21004,21079,21234,21304,21430,-0.00356,"North","South Lake Tahoe","CA","California","6017","El Dorado County",2086,"california/south-lake-tahoe",10.068,-119.981,38.9282,"City",342
20972,20972,20728,20484,18980,17557,0.01177,"Southeast","Stevenson Ranch","CA","California","6037","Los Angeles County",3285,"california/stevenson-ranch",6.384,-118.584,34.3877,"CDP",343
20963,20963,21217,21427,21979,21725,-0.01197,"South","Port Hueneme","CA","California","6111","Ventura County",4748,"california/port-hueneme",4.415,-119.204,34.1621,"City",344
20926,20926,20754,20581,20817,18510,0.00829,"Southeast","Mead Valley","CA","California","6065","Riverside County",1096,"california/mead-valley",19.086,-117.285,33.8333,"CDP",345
20735,20735,20498,20261,20161,17418,0.01156,"Southeast","East Hemet","CA","California","6065","Riverside County",3988,"california/east-hemet",5.199,-116.941,33.7301,"CDP",346
20517,20517,20174,19345,19144,16201,0.017,"Southeast","Santa Fe Springs","CA","California","6037","Los Angeles County",2316,"california/santa-fe-springs",8.858,-118.063,33.9336,"City",347
20343,20343,20515,20687,22476,22753,-0.00838,"Southeast","Lennox","CA","California","6037","Los Angeles County",18612,"california/lennox",1.093,-118.359,33.9381,"CDP",348
20270,20270,20163,20055,19327,18762,0.00531,"Southeast","Casa Oro-Mount Helix","CA","California","6073","San Diego County",2959,"california/casa-oro-mount-helix",6.851,-116.969,32.764,"CDP",349
20242,20242,21367,22491,24401,35983,-0.05265,"Southeast","Willowbrook","CA","California","6037","Los Angeles County",12070,"california/willowbrook",1.677,-118.237,33.9208,"CDP",350
20165,20165,20129,20092,20171,19653,0.00179,"Southeast","La Crescenta-Montrose","CA","California","6037","Los Angeles County",5882,"california/la-crescenta-montrose",3.428,-118.236,34.233,"CDP",351
20031,20031,19642,19252,19072,14578,0.0198,"Southeast","Valle Vista","CA","California","6065","Riverside County",2905,"california/valle-vista",6.896,-116.889,33.7434,"CDP",352
20027,20027,19600,19174,19003,14058,0.02179,"South","Rosedale","CA","California","6029","Kern County",684,"california/rosedale",29.272,-119.206,35.3886,"CDP",353
19674,19674,19523,19372,20560,17560,0.00773,"West","Prunedale","CA","California","6053","Monterey County",427,"california/prunedale",46.062,-121.655,36.8117,"CDP",354
19498,19498,19328,18750,18816,18778,0.0088,"West","Chowchilla","CA","California","6039","Madera County",1759,"california/chowchilla",11.086,-120.242,37.1161,"City",355
19420,19420,19782,20048,20868,20220,-0.0183,"Southeast","Lomita","CA","California","6037","Los Angeles County",10157,"california/lomita",1.912,-118.317,33.7933,"City",356
19401,19401,19309,19178,19032,18412,0.00476,"Northwest","Dixon","CA","California","6095","Solano County",2733,"california/dixon",7.1,-121.824,38.4475,"City",357
19319,19319,19364,19436,19498,19374,-0.00232,"Southeast","Arvin","CA","California","6029","Kern County",4009,"california/arvin",4.819,-118.831,35.1944,"City",358
19314,19314,19364,19428,19514,17799,-0.00258,"Northwest","Orinda","CA","California","6013","Contra Costa County",1503,"california/orinda",12.852,-122.169,37.8816,"City",359
19267,19267,19449,19611,19995,18698,-0.00936,"Northwest","Oroville","CA","California","6007","Butte County",1386,"california/oroville",13.898,-121.56,39.4954,"City",360
19222,19222,19474,19541,20228,20336,-0.01294,"Southeast","Agoura Hills","CA","California","6037","Los Angeles County",2466,"california/agoura-hills",7.796,-118.764,34.1489,"City",361
19218,19218,19538,19726,20497,20251,-0.01638,"Southeast","La Caada Flintridge","CA","California","6037","Los Angeles County",2227,"california/la-canada-flintridge",8.631,-118.2,34.2097,"City",362
19086,19086,19012,18578,18790,17685,0.00389,"Northwest","Arcata","CA","California","6023","Humboldt County",2027,"california/arcata",9.416,-124.075,40.8623,"City",363
18933,18933,18603,18272,19038,14304,0.01774,"Southeast","Phelan","CA","California","6071","San Bernardino County",315,"california/phelan",60.092,-117.525,34.4398,"CDP",364
18858,18858,19032,19254,19553,20093,-0.00914,"Southeast","South El Monte","CA","California","6037","Los Angeles County",6631,"california/south-el-monte",2.844,-118.048,34.0504,"City",365
18721,18721,19097,19349,20225,18615,-0.01969,"Northwest","Albany","CA","California","6001","Alameda County",10459,"california/albany",1.79,-122.318,37.8907,"City",366
18581,18581,18612,18643,18479,19015,-0.00167,"Southeast","Castaic","CA","California","6037","Los Angeles County",2559,"california/castaic",7.262,-118.633,34.4774,"CDP",367
18532,18532,18437,18360,18150,24014,0.00515,"Southeast","Coronado","CA","California","6073","San Diego County",2374,"california/coronado",7.805,-117.157,32.6576,"City",368
18411,18411,18564,18717,19104,20551,-0.00824,"Southeast","South San Jose Hills","CA","California","6037","Los Angeles County",12290,"california/south-san-jose-hills",1.498,-117.904,34.0123,"CDP",369
18306,18306,18481,18642,19005,18369,-0.00947,"Northwest","Pinole","CA","California","6013","Contra Costa County",3587,"california/pinole",5.104,-122.318,38.0017,"City",370
18300,18300,18641,18883,19663,19507,-0.01829,"Southeast","Hermosa Beach","CA","California","6037","Los Angeles County",12833,"california/hermosa-beach",1.426,-118.405,33.8698,"City",371
18225,18225,18117,18009,18182,16714,0.00596,"Southwest","Nipomo","CA","California","6079","San Luis Obispo County",1209,"california/nipomo",15.075,-120.498,35.0307,"CDP",372
18178,18178,18243,18383,18438,17299,-0.00356,"Southwest","Arroyo Grande","CA","California","6079","San Luis Obispo County",3061,"california/arroyo-grande",5.939,-120.585,35.1241,"City",373
18055,18055,18045,17367,18013,20588,0.00055,"Southeast","Blythe","CA","California","6065","Riverside County",681,"california/blythe",26.504,-114.622,33.6535,"City",374
18048,18048,17795,17574,17036,17241,0.01422,"Southeast","Rancho Mirage","CA","California","6065","Riverside County",713,"california/rancho-mirage",25.297,-116.43,33.7638,"City",375
18043,18043,17729,17416,15149,13656,0.01771,"Northwest","Olivehurst","CA","California","6115","Yuba County",2144,"california/olivehurst",8.414,-121.557,39.0795,"CDP",376
17956,17956,17976,17995,18370,18228,-0.00111,"Northwest","Cameron Park","CA","California","6017","El Dorado County",1599,"california/cameron-park",11.227,-120.988,38.674,"CDP",377
17883,17883,17631,17378,18719,14347,0.01429,"Southeast","Woodcrest","CA","California","6065","Riverside County",1568,"california/woodcrest",11.405,-117.369,33.8789,"CDP",378
17829,17829,17542,17255,16200,13809,0.01636,"West","Stanford","CA","California","6085","Santa Clara County",6483,"california/stanford",2.75,-122.168,37.4269,"CDP",379
17810,17810,16538,15266,16405,0,0.07691,"Southeast","Vincent","CA","California","6037","Los Angeles County",12091,"california/vincent",1.473,-117.924,34.0983,"CDP",380
17798,17798,17753,17707,16508,17158,0.00253,"West","Live Oak","CA","California","6101","Sutter County",5488,"california/live-oak-santa-cruz-county",3.243,-121.98,36.986,"CDP",381
17637,17637,17238,16894,16039,13617,0.02315,"West","Kerman","CA","California","6019","Fresno County",5252,"california/kerman",3.358,-120.062,36.725,"City",382
17420,17420,17190,16690,16499,15017,0.01338,"Southeast","Fillmore","CA","California","6111","Ventura County",5274,"california/fillmore",3.303,-118.917,34.399,"City",383
17284,17284,17369,16911,17624,18334,-0.00489,"Southwest","Coalinga","CA","California","6019","Fresno County",2524,"california/coalinga",6.847,-120.339,36.1331,"City",384
17202,17202,17058,16913,16645,15177,0.00844,"Northwest","McKinleyville","CA","California","6023","Humboldt County",824,"california/mckinleyville",20.882,-124.077,40.9516,"CDP",385
17130,17130,17039,17075,16766,16167,0.00534,"Northwest","Truckee","CA","California","6057","Nevada County",530,"california/truckee",32.332,-120.194,39.3505,"Town",386
17095,17095,16973,16850,17532,15379,0.00719,"Southeast","Bostonia","CA","California","6073","San Diego County",8876,"california/bostonia",1.926,-116.942,32.819,"CDP",387
16844,16844,16720,16596,16115,15106,0.00742,"Northwest","Rio Linda","CA","California","6067","Sacramento County",1697,"california/rio-linda",9.927,-121.442,38.6875,"CDP",388
16791,16791,16998,17199,17617,15998,-0.01218,"Southeast","Laguna Woods","CA","California","6059","Orange County",5024,"california/laguna-woods",3.342,-117.73,33.6121,"City",389
16504,16504,16373,16242,16282,14670,0.008,"Northwest","Parkway","CA","California","6067","Sacramento County",6851,"california/parkway",2.409,-121.452,38.4993,"CDP",390
16436,16436,16547,16680,16880,16038,-0.00671,"Northwest","Moraga","CA","California","6013","Contra Costa County",1737,"california/moraga",9.461,-122.123,37.8457,"Town",391
16409,16409,16481,16589,16697,15273,-0.00437,"Northwest","Clearlake","CA","California","6033","Lake County",1620,"california/clearlake",10.129,-122.633,38.96,"City",392
16250,16250,16229,16209,15939,15966,0.00129,"Southeast","Walnut Park","CA","California","6037","Los Angeles County",21696,"california/walnut-park",0.749,-118.222,33.9682,"CDP",393
16190,16190,16051,15911,14958,14236,0.00866,"Southeast","Alpine","CA","California","6073","San Diego County",604,"california/alpine",26.786,-116.756,32.8425,"CDP",394
16188,16188,16445,16607,17216,16656,-0.01563,"Southeast","El Segundo","CA","California","6037","Los Angeles County",2971,"california/el-segundo",5.449,-118.425,33.9104,"City",395
16052,16052,16068,16176,16116,14439,-0.001,"Northwest","Ripon","CA","California","6077","San Joaquin County",3014,"california/ripon",5.325,-121.13,37.742,"City",396
15968,15968,15733,15497,14779,12669,0.01494,"Northwest","El Sobrante","CA","California","6013","Contra Costa County",5158,"california/el-sobrante-contra-costa-county",3.096,-122.303,37.9736,"CDP",397
15911,15911,16072,16295,16553,16019,-0.01002,"Northwest","Ukiah","CA","California","6045","Mendocino County",3338,"california/ukiah",4.767,-123.21,39.1466,"City",398
15760,15760,15696,15632,15509,14866,0.00408,"Southeast","Coto Caza","CA","California","6059","Orange County",2021,"california/coto-caza",7.798,-117.586,33.597,"CDP",399
15731,15731,15627,15523,16174,14276,0.00666,"Southwest","Los Osos","CA","California","6079","San Luis Obispo County",1233,"california/los-osos",12.763,-120.825,35.3071,"CDP",400
15697,15697,15530,15362,15904,13352,0.01075,"Northwest","Discovery Bay","CA","California","6013","Contra Costa County",2807,"california/discovery-bay",5.592,-121.597,37.9081,"CDP",401
15628,15628,15563,15499,15976,14728,0.00418,"West","Cherryland","CA","California","6001","Alameda County",13100,"california/cherryland",1.193,-122.104,37.6792,"CDP",402
15350,15350,15597,15772,16338,16523,-0.01584,"Southeast","Artesia","CA","California","6037","Los Angeles County",9475,"california/artesia",1.62,-118.081,33.8676,"City",403
15037,15037,14943,14849,15269,13722,0.00629,"Northwest","Salida","CA","California","6099","Stanislaus County",6783,"california/salida",2.217,-121.085,37.7091,"CDP",404
15006,15006,14915,14824,15104,13729,0.0061,"Northwest","Lemon Hill","CA","California","6067","Sacramento County",9150,"california/lemon-hill",1.64,-121.457,38.5172,"CDP",405
14889,14889,14906,14924,15252,15135,-0.00114,"Southeast","East Rancho Dominguez","CA","California","6037","Los Angeles County",18135,"california/east-rancho-dominguez",0.821,-118.196,33.8948,"CDP",406
14852,14852,15029,15203,15560,15544,-0.01178,"Southeast","La Palma","CA","California","6059","Orange County",8339,"california/la-palma",1.781,-118.04,33.8506,"City",407
14782,14782,14643,14718,14225,13105,0.00949,"West","Livingston","CA","California","6047","Merced County",4022,"california/livingston",3.675,-120.725,37.3873,"City",408
14647,14647,14757,14866,15087,15073,-0.00745,"Southwest","Pacific Grove","CA","California","6053","Monterey County",5111,"california/pacific-grove",2.866,-121.926,36.6226,"City",409
14633,14633,14518,14403,14446,13022,0.00792,"Northwest","North Auburn","CA","California","6057","Nevada County",1879,"california/north-auburn",7.788,-121.081,38.9307,"CDP",410
14489,14489,14213,13936,16618,10616,0.01942,"Southeast","Camp Pendleton South","CA","California","6073","San Diego County",2089,"california/camp-pendleton-south",6.937,-117.392,33.2318,"CDP",411
14377,14377,14426,14507,14573,14594,-0.0034,"South","Parlier","CA","California","6019","Fresno County",5749,"california/parlier",2.501,-119.544,36.609,"City",412
14328,14328,14413,14519,14667,14071,-0.0059,"Northwest","Red Bluff","CA","California","6103","Tehama County",1895,"california/red-bluff",7.561,-122.242,40.1735,"City",413
14319,14319,14337,14355,13864,14570,-0.00126,"Northwest","Alamo","CA","California","6013","Contra Costa County",1459,"california/alamo",9.816,-122.014,37.8548,"CDP",414
14281,14281,14075,13252,13456,15264,0.01464,"Southwest","Avenal","CA","California","6031","Kings County",733,"california/avenal",19.483,-120.116,36.0311,"City",415
14105,14105,13917,13503,13352,12900,0.01351,"Southwest","King City","CA","California","6053","Monterey County",3715,"california/king-city",3.797,-121.132,36.2163,"City",416
14069,14069,14074,14138,14087,12876,-0.00036,"Northwest","Grass Valley","CA","California","6057","Nevada County",2346,"california/grass-valley",5.996,-121.053,39.2203,"City",417
14007,14007,14049,14149,14173,12707,-0.00299,"South","McFarland","CA","California","6029","Kern County",2209,"california/mcfarland",6.341,-119.231,35.6673,"City",418
13655,13655,13792,13928,14201,13934,-0.00993,"Northwest","Mill Valley","CA","California","6041","Marin County",2855,"california/mill-valley",4.782,-122.542,37.9081,"City",419
13629,13629,13551,13473,12470,12538,0.00576,"Southeast","Bonita","CA","California","6073","San Diego County",2717,"california/bonita",5.017,-117.006,32.6732,"CDP",420
13617,13617,13658,13744,13780,13349,-0.003,"Northwest","Auburn","CA","California","6061","Placer County",1897,"california/auburn",7.177,-121.077,38.8951,"City",421
13596,13596,13612,13627,13987,13811,-0.00118,"Southeast","Oak Park","CA","California","6111","Ventura County",2568,"california/oak-park",5.295,-118.767,34.185,"CDP",422
13556,13556,13637,13718,14992,14687,-0.00594,"West","North Fair Oaks","CA","California","6081","San Mateo County",11334,"california/north-fair-oaks",1.196,-122.203,37.4754,"CDP",423
13481,13481,13598,13715,14724,15120,-0.0086,"Southeast","Lamont","CA","California","6029","Kern County",2810,"california/lamont",4.797,-118.916,35.2651,"CDP",424
13379,13379,13802,15180,15070,13463,-0.03065,"Southeast","California City","CA","California","6029","Kern County",66,"california/california-city",203.629,-117.869,35.1466,"City",425
13348,13348,12394,11441,11671,0,0.07697,"South","University California-Santa Barbara","CA","California","6083","Santa Barbara County",10268,"california/university-california-santa-barbara",1.3,-119.847,34.4178,"CDP",426
13326,13326,14024,14722,15733,23096,-0.04977,"South","Isla Vista","CA","California","6083","Santa Barbara County",24185,"california/isla-vista",0.551,-119.861,34.4122,"CDP",427
13225,13225,13161,13097,11926,12328,0.00486,"Southeast","Lake Los Angeles","CA","California","6037","Los Angeles County",1358,"california/lake-los-angeles",9.741,-117.83,34.6098,"CDP",428
13211,13211,13013,12677,12419,11475,0.01522,"South","Kingsburg","CA","California","6019","Fresno County",3548,"california/kingsburg",3.724,-119.567,36.5252,"City",429
13164,13164,13396,13563,14092,14271,-0.01732,"Southeast","Hawaiian Gardens","CA","California","6037","Los Angeles County",13930,"california/hawaiian-gardens",0.945,-118.073,33.8305,"City",430
13146,13146,13308,13470,13836,15411,-0.01217,"Southeast","Avocado Heights","CA","California","6037","Los Angeles County",5840,"california/avocado-heights",2.251,-117.998,34.039,"CDP",431
12867,12867,12939,13039,13155,12060,-0.00556,"Southeast","Grand Terrace","CA","California","6071","San Bernardino County",3652,"california/grand-terrace",3.523,-117.313,34.0311,"City",432
12828,12828,12790,12753,12621,12304,0.00297,"Southeast","Big Bear City","CA","California","6071","San Bernardino County",401,"california/big-bear-city",32.015,-116.796,34.2541,"CDP",433
12689,12689,12828,12977,13244,12996,-0.01084,"South","Carpinteria","CA","California","6083","Santa Barbara County",4903,"california/carpinteria",2.588,-119.501,34.3852,"City",434
12670,12670,12732,12632,12918,10110,-0.00487,"Northwest","Emeryville","CA","California","6001","Alameda County",9953,"california/emeryville",1.273,-122.302,37.8385,"City",435
12615,12615,12674,12631,12851,12072,-0.00466,"Northwest","Marysville","CA","California","6115","Yuba County",3642,"california/marysville",3.464,-121.583,39.1515,"City",436
12591,12591,12675,12721,12927,12894,-0.00663,"Southeast","Solana Beach","CA","California","6073","San Diego County",3688,"california/solana-beach",3.414,-117.258,32.9913,"City",437
12546,12546,11650,10754,10254,0,0.07691,"Southeast","East Bakersfield","CA","California","6029","Kern County",15942,"california/east-bakersfield",0.787,-118.974,35.3832,"CDP",438
12510,12510,12530,12546,12588,11311,-0.0016,"West","Mendota","CA","California","6019","Fresno County",3687,"california/mendota",3.393,-120.38,36.7576,"City",439
12495,12495,12547,12644,12701,13175,-0.00414,"Southwest","Grover Beach","CA","California","6079","San Luis Obispo County",5404,"california/grover-beach",2.312,-120.62,35.1209,"City",440
12480,12480,11588,10697,10833,0,0.07698,"Southeast","Potomac Park","CA","California","6029","Kern County",8752,"california/potomac-park",1.426,-118.965,35.3635,"CDP",441
12480,12480,11588,10697,7816,0,0.07698,"Southeast","Rancho Mission Viejo","CA","California","6059","Orange County",330,"california/rancho-mission-viejo",37.808,-117.562,33.514,"CDP",442
12448,12448,12496,12551,12638,11859,-0.00384,"South","Lindsay","CA","California","6107","Tulare County",4273,"california/lindsay",2.913,-119.093,36.2091,"City",443
12442,12442,12589,12739,13029,11926,-0.01168,"Northwest","Larkspur","CA","California","6041","Marin County",4149,"california/larkspur",2.999,-122.53,37.9405,"City",444
12440,12440,12318,12196,12331,10735,0.0099,"Northwest","Tamalpais-Homestead Valley","CA","California","6041","Marin County",2655,"california/tamalpais-homestead-valley",4.685,-122.538,37.8791,"CDP",445
12424,12424,12646,12799,13311,13432,-0.01755,"Southeast","Palos Verdes Estates","CA","California","6037","Los Angeles County",2601,"california/palos-verdes-estates",4.776,-118.426,33.7743,"City",446
12396,12396,12337,12278,12027,11570,0.00478,"Southeast","Home Gardens","CA","California","6065","Riverside County",8097,"california/home-gardens",1.531,-117.512,33.8783,"CDP",447
12394,12394,12498,12594,12808,12322,-0.00832,"Northwest","San Anselmo","CA","California","6041","Marin County",4633,"california/san-anselmo",2.675,-122.57,37.9821,"Town",448
12390,12390,12294,12197,11332,11037,0.00781,"Northwest","Diamond Springs","CA","California","6017","El Dorado County",745,"california/diamond-springs",16.64,-120.839,38.692,"CDP",449
12244,12244,11370,10495,11801,0,0.07687,"Southeast","Hillcrest","CA","California","6029","Kern County",8885,"california/hillcrest",1.378,-118.958,35.379,"CDP",450
12215,12215,12100,11986,11619,10613,0.0095,"West","Winton","CA","California","6047","Merced County",4017,"california/winton",3.041,-120.617,37.3854,"CDP",451
12214,12214,12285,12390,12496,12030,-0.00578,"Northwest","Fortuna","CA","California","6023","Humboldt County",2326,"california/fortuna",5.252,-124.142,40.5871,"City",452
12153,12153,12076,11999,11621,11075,0.00638,"Southeast","View Park-Windsor Hills","CA","California","6037","Los Angeles County",6601,"california/view-park-windsor-hills",1.841,-118.348,33.9945,"CDP",453
12145,12145,12207,12261,12391,10351,-0.00508,"West","Newman","CA","California","6099","Stanislaus County",5665,"california/newman",2.144,-121.021,37.3161,"City",454
12028,12028,12077,12127,13096,12723,-0.00406,"Southeast","El Sobrante","CA","California","6013","Contra Costa County",1663,"california/el-sobrante-riverside-county",7.233,-117.463,33.8725,"CDP",455
11995,11995,11898,11802,11546,10644,0.00815,"Southeast","Muscoy","CA","California","6071","San Bernardino County",3944,"california/muscoy",3.041,-117.348,34.1552,"CDP",456
11992,11992,11867,11742,11923,10244,0.01053,"Southeast","Rossmoor","CA","California","6059","Orange County",7692,"california/rossmoor",1.559,-118.08,33.7887,"CDP",457
11956,11956,11102,10248,10182,0,0.07692,"Southeast","East Whittier","CA","California","6037","Los Angeles County",10969,"california/east-whittier",1.09,-117.989,33.9244,"CDP",458
11944,11944,11901,11751,11770,11357,0.00361,"Southeast","Los Alamitos","CA","California","6059","Orange County",2980,"california/los-alamitos",4.008,-118.061,33.7969,"City",459
11811,11811,11977,12088,12474,13102,-0.01386,"Southeast","San Marino","CA","California","6037","Los Angeles County",3136,"california/san-marino",3.766,-118.113,34.1227,"City",460
11794,11794,11723,11652,11570,10802,0.00606,"Northwest","La Riviera","CA","California","6067","Sacramento County",6207,"california/la-riviera",1.9,-121.355,38.5685,"CDP",461
11762,11762,11879,12020,12228,11578,-0.00985,"West","Scotts Valley","CA","California","6087","Santa Cruz County",2547,"california/scotts-valley",4.618,-122.012,37.0555,"City",462
11480,11480,11165,11113,10220,7844,0.02821,"Southeast","Calimesa","CA","California","6065","Riverside County",771,"california/calimesa",14.893,-117.054,33.9874,"City",463
11456,11456,11672,11831,12318,12833,-0.01851,"Southeast","Commerce","CA","California","6037","Los Angeles County",1753,"california/commerce",6.534,-118.15,33.9945,"City",464
11456,11456,11464,11472,14080,11565,-0.0007,"Southeast","Sun Village","CA","California","6037","Los Angeles County",1060,"california/sun-village",10.804,-117.957,34.5595,"CDP",465
11443,11443,12689,13762,16426,17707,-0.0982,"Northwest","Susanville","CA","California","6035","Lassen County",1445,"california/susanville",7.918,-120.628,40.4337,"City",466
11214,11214,11522,11831,11798,15536,-0.02673,"West","Alum Rock","CA","California","6085","Santa Clara County",12904,"california/alum-rock",0.869,-121.824,37.3694,"CDP",467
11204,11204,11067,10929,11320,9277,0.01238,"Southeast","Valley Center","CA","California","6073","San Diego County",408,"california/valley-center",27.445,-117.016,33.233,"CDP",468
11199,11199,10399,9599,7424,0,0.07693,"Southeast","Camp Pendleton Mainside","CA","California","6073","San Diego County",1042,"california/camp-pendleton-mainside",10.747,-117.331,33.3072,"CDP",469
11170,11170,11210,11272,11330,9978,-0.00357,"Northwest","Anderson","CA","California","6089","Shasta County",1589,"california/anderson",7.031,-122.295,40.4498,"City",470
11100,11100,11096,11111,11084,10591,0.00036,"Southeast","Canyon Lake","CA","California","6065","Riverside County",2855,"california/canyon-lake",3.888,-117.264,33.6883,"City",471
11067,11067,11137,11171,11346,11319,-0.00629,"Northwest","Healdsburg","CA","California","6097","Sonoma County",2504,"california/healdsburg",4.42,-122.865,38.6225,"City",472
11061,11061,11249,11379,11811,11024,-0.01671,"Southeast","Signal Hill","CA","California","6037","Los Angeles County",5053,"california/signal-hill",2.189,-118.17,33.8035,"City",473
10998,10998,10988,10979,10105,10866,0.00091,"Southeast","Citrus","CA","California","6037","Los Angeles County",12555,"california/citrus",0.876,-117.891,34.1134,"CDP",474
10920,10920,10908,10896,11837,10755,0.0011,"West","Delhi","CA","California","6047","Merced County",3111,"california/delhi",3.51,-120.776,37.4306,"CDP",475
10883,10883,11105,11181,11771,11369,-0.01999,"West","Half Moon Bay","CA","California","6081","San Mateo County",1744,"california/half-moon-bay",6.242,-122.44,37.4673,"City",476
10882,10882,10819,10756,10424,10001,0.00582,"Southeast","Del Aire","CA","California","6037","Los Angeles County",10796,"california/del-aire",1.008,-118.369,33.9167,"CDP",477
10833,10833,10728,10622,10590,9354,0.00979,"Northwest","Blackhawk","CA","California","6013","Contra Costa County",1876,"california/blackhawk",5.775,-121.913,37.8096,"CDP",478
10723,10723,10883,10896,11363,10803,-0.0147,"West","Hillsborough","CA","California","6081","San Mateo County",1739,"california/hillsborough",6.166,-122.359,37.5572,"Town",479
10680,10680,10631,10583,10834,10003,0.00461,"West","Fairview","CA","California","6001","Alameda County",3591,"california/fairview",2.974,-122.044,37.6777,"CDP",480
10652,10652,10754,10847,11058,10941,-0.00948,"Northwest","Clayton","CA","California","6013","Contra Costa County",2774,"california/clayton",3.84,-121.93,37.9403,"City",481
10648,10648,10577,10505,10721,9644,0.00671,"West","Soquel","CA","California","6087","Santa Cruz County",2316,"california/soquel",4.597,-121.948,36.9978,"CDP",482
10631,10631,10656,10683,10729,10470,-0.00235,"Northwest","Placerville","CA","California","6017","El Dorado County",1820,"california/placerville",5.84,-120.798,38.7311,"City",483
10582,10582,10619,10701,10729,10666,-0.00348,"Northwest","Sonoma","CA","California","6097","Sonoma County",3856,"california/sonoma",2.744,-122.46,38.2903,"City",484
10538,10538,10713,10833,11236,10916,-0.01634,"Southeast","Sierra Madre","CA","California","6037","Los Angeles County",3571,"california/sierra-madre",2.951,-118.05,34.1688,"City",485
10531,10531,10589,10688,10762,10256,-0.00548,"Southwest","Morro Bay","CA","California","6079","San Luis Obispo County",1973,"california/morro-bay",5.338,-120.868,35.3668,"City",486
10509,10509,10391,10274,10065,8866,0.01136,"Southeast","Marina Rey","CA","California","6037","Los Angeles County",12248,"california/marina-rey",0.858,-118.451,33.9764,"CDP",487
10427,10427,10635,10773,11258,10709,-0.01956,"Northwest","Piedmont","CA","California","6001","Alameda County",6134,"california/piedmont",1.7,-122.23,37.8225,"City",488
10402,10402,10484,10565,12362,11541,-0.00782,"Southeast","Lakeland Village","CA","California","6059","Orange County",1186,"california/lakeland-village",8.771,-117.367,33.649,"CDP",489
10263,10263,10252,10241,9752,10109,0.00107,"Southeast","San Diego Country Estates","CA","California","6073","San Diego County",611,"california/san-diego-country-estates",16.784,-116.787,33.0094,"CDP",490
10228,10228,10262,10307,10363,10139,-0.00331,"Northwest","Shasta Lake","CA","California","6089","Shasta County",938,"california/shasta-lake",10.899,-122.381,40.6766,"City",491
10191,10191,10243,10291,10397,10638,-0.00508,"South","Farmersville","CA","California","6107","Tulare County",4503,"california/farmersville",2.263,-119.209,36.3047,"City",492
10190,10190,10145,10023,10008,7374,0.00444,"Northwest","Rio Vista","CA","California","6095","Solano County",1544,"california/rio-vista",6.6,-121.703,38.1767,"City",493
10180,10180,10881,12393,12982,14400,-0.06442,"Southeast","Tehachapi","CA","California","6029","Kern County",993,"california/tehachapi",10.256,-118.446,35.143,"City",494
10166,10166,10206,10254,10324,10349,-0.00392,"South","Exeter","CA","California","6107","Tulare County",4103,"california/exeter",2.478,-119.146,36.2941,"City",495
10161,10161,10277,10330,10625,12629,-0.01129,"Southeast","Malibu","CA","California","6037","Los Angeles County",512,"california/malibu",19.847,-118.76,34.0259,"City",496
10098,10098,9995,9892,10234,8656,0.01031,"Southeast","Golden Hills","CA","California","6029","Kern County",925,"california/golden-hills",10.914,-118.498,35.1364,"CDP",497
10037,10037,10080,10124,10096,10648,-0.00427,"Northwest","Garden Acres","CA","California","6077","San Joaquin County",3884,"california/garden-acres",2.584,-121.23,37.9637,"CDP",498
9952,9952,10020,10089,10405,10912,-0.00679,"Southeast","Quartz Hill","CA","California","6029","Kern County",2645,"california/quartz-hill",3.762,-118.216,34.652,"CDP",499
9899,9899,9847,9794,9990,9163,0.00528,"West","Madera Acres","CA","California","6039","Madera County",1382,"california/madera-acres",7.162,-120.08,37.0127,"CDP",500
9879,9879,9174,8468,9990,0,0.07685,"Southeast","La Cresta","CA","California","6029","Kern County",9445,"california/la-cresta",1.046,-118.989,35.3972,"CDP",501
9872,9872,9789,9707,10141,8720,0.00848,"Southeast","Mentone","CA","California","6071","San Bernardino County",1615,"california/mentone",6.112,-117.115,34.0606,"CDP",502
9859,9859,9947,10016,10209,9278,-0.00885,"Northwest","Corte Madera","CA","California","6041","Marin County",3120,"california/corte-madera",3.16,-122.508,37.9318,"Town",503
9816,9816,10003,10189,9741,12424,-0.01869,"Southeast","Lake Arrowhead","CA","California","6071","San Bernardino County",555,"california/lake-arrowhead",17.678,-117.178,34.254,"CDP",504
9737,9737,9712,9686,9242,9379,0.00257,"Northwest","Country Club","CA","California","6077","San Joaquin County",5079,"california/country-club",1.917,-121.34,37.968,"CDP",505
9547,9547,9443,9366,9131,8479,0.01101,"Northwest","Live Oak","CA","California","6101","Sutter County",3059,"california/live-oak-sutter-county",3.121,-121.662,39.2788,"City",506
9456,9456,9572,9689,9920,9923,-0.01212,"West","Capitola","CA","California","6087","Santa Cruz County",5932,"california/capitola",1.594,-121.954,36.9761,"City",507
9447,9447,9497,9568,9645,9759,-0.00526,"South","Orange Cove","CA","California","6019","Fresno County",5272,"california/orange-cove",1.792,-119.319,36.6211,"City",508
9443,9443,9389,9334,10023,8679,0.00575,"Northwest","Rodeo","CA","California","6013","Contra Costa County",2520,"california/rodeo",3.747,-122.254,38.0366,"CDP",509
9385,9385,9323,9160,9135,8473,0.00665,"West","Waterford","CA","California","6099","Stanislaus County",3980,"california/waterford",2.358,-120.754,37.6427,"City",510
9380,9380,8285,7220,4998,26180,0.13217,"Northwest","Paradise","CA","California","6007","Butte County",512,"california/paradise-butte-county",18.316,-121.606,39.7542,"Town",511
9339,9339,9337,9335,9963,9310,0.00021,"Southeast","Charter Oak","CA","California","6037","Los Angeles County",10064,"california/charter-oak",0.928,-117.856,34.1025,"CDP",512
9206,9206,9147,9089,8046,8390,0.00645,"Northwest","August","CA","California","6077","San Joaquin County",7330,"california/august",1.256,-121.263,37.9796,"CDP",513
9198,9198,9164,9131,9554,8729,0.00371,"Southeast","West Athens","CA","California","6037","Los Angeles County",6880,"california/west-athens",1.337,-118.303,33.9235,"CDP",514
9155,9155,9128,9100,8908,8770,0.00296,"South","Orosi","CA","California","6107","Tulare County",3554,"california/orosi",2.576,-119.291,36.5433,"CDP",515
9096,9096,9215,9335,9351,10770,-0.01291,"Southeast","Crestline","CA","California","6071","San Bernardino County",654,"california/crestline",13.904,-117.287,34.2541,"CDP",516
8987,8987,8977,8967,9573,8845,0.00111,"Southeast","Fort Irwin","CA","California","6071","San Bernardino County",1290,"california/fort-irwin",6.965,-116.683,35.2477,"CDP",517
8972,8972,8990,9007,9713,9216,-0.002,"West","Rio Mar","CA","California","6087","Santa Cruz County",2991,"california/rio-mar",3,-121.885,36.9579,"CDP",518
8901,8901,9073,9245,11444,11310,-0.01896,"Northwest","Magalia","CA","California","6007","Butte County",635,"california/magalia",14.021,-121.608,39.8188,"CDP",519
8855,8855,8809,8764,8408,8220,0.00522,"Southeast","Spring Valley Lake","CA","California","6071","San Bernardino County",2928,"california/spring-valley-lake",3.024,-117.268,34.4968,"CDP",520
8771,8771,8692,8614,7965,7674,0.00909,"Southwest","Templeton","CA","California","6079","San Luis Obispo County",1109,"california/templeton",7.909,-120.718,35.556,"CDP",521
8762,8762,8825,8871,9014,8608,-0.00714,"Northwest","Cloverdale","CA","California","6097","Sonoma County",2605,"california/cloverdale",3.363,-123.015,38.7948,"City",522
8756,8756,8622,8569,8219,7082,0.01554,"Southwest","Guadalupe","CA","California","6083","Santa Barbara County",6684,"california/guadalupe",1.31,-120.573,34.9649,"City",523
8748,8748,8846,8944,9138,8956,-0.01108,"Northwest","Tiburon","CA","California","6041","Marin County",1949,"california/tiburon",4.489,-122.463,37.8868,"Town",524
8709,8709,8505,8301,7687,5853,0.02399,"Northwest","Plumas Lake","CA","California","6115","Yuba County",736,"california/plumas-lake",11.837,-121.558,38.9791,"CDP",525
8693,8693,8547,8475,8109,7570,0.01708,"West","Firebaugh","CA","California","6019","Fresno County",2472,"california/firebaugh",3.517,-120.454,36.8537,"City",526
8636,8636,8433,8229,9031,5786,0.02407,"Northwest","University California-Davis","CA","California","6095","Solano County",5001,"california/university-california-davis",1.727,-121.758,38.5377,"CDP",527
8516,8516,8213,7910,8413,4275,0.03689,"Southeast","Heber","CA","California","6025","Imperial County",5930,"california/heber",1.436,-115.529,32.7325,"CDP",528
8456,8456,8493,8529,8210,8965,-0.00436,"South","Montecito","CA","California","6083","Santa Barbara County",921,"california/montecito",9.183,-119.633,34.4186,"CDP",529
8330,8330,8286,8242,8158,7715,0.00531,"Southeast","Thousand Palms","CA","California","6065","Riverside County",353,"california/thousand-palms",23.62,-116.354,33.815,"CDP",530
8270,8270,8270,8270,6815,8269,0,"West","East Foothills","CA","California","6085","Santa Clara County",3888,"california/east-foothills",2.127,-121.814,37.3826,"CDP",531
8268,8268,8291,8314,8000,8592,-0.00277,"Southeast","Alondra Park","CA","California","6037","Los Angeles County",7482,"california/alondra-park",1.105,-118.336,33.8902,"CDP",532
8223,8223,8327,8428,8637,8154,-0.01249,"Southwest","Gonzales","CA","California","6053","Monterey County",4298,"california/gonzales",1.913,-121.443,36.506,"City",533
8188,8188,8195,8202,8098,8289,-0.00085,"Southeast","Topanga","CA","California","6037","Los Angeles County",428,"california/topanga",19.127,-118.606,34.0968,"CDP",534
8159,8159,8099,8039,7596,7321,0.00741,"West","Interlaken","CA","California","6053","Monterey County",832,"california/interlaken",9.804,-121.738,36.9506,"CDP",535
8147,8147,7565,6983,7713,0,0.07693,"Southwest","California Polytechnic State University","CA","California","6079","San Luis Obispo County",5297,"california/california-polytechnic-state-university",1.538,-120.667,35.307,"CDP",536
8141,8141,8216,8291,8431,9192,-0.00913,"Southeast","Good Hope","CA","California","6065","Riverside County",725,"california/good-hope",11.225,-117.277,33.7706,"CDP",537
8089,8089,8189,8205,8489,8084,-0.01221,"West","Los Altos Hills","CA","California","6085","Santa Clara County",892,"california/los-altos-hills",9.067,-122.139,37.3668,"Town",538
8067,8067,8132,8202,8327,7405,-0.00799,"Northwest","Orland","CA","California","6021","Glenn County",2691,"california/orland",2.998,-122.186,39.7461,"City",539
8031,8031,7458,6884,6667,0,0.07683,"Northwest","Contra Costa Centre","CA","California","6013","Contra Costa County",12608,"california/contra-costa-centre",0.637,-122.054,37.926,"CDP",540
8019,8019,8069,8140,8217,7671,-0.0062,"Northwest","Corning","CA","California","6103","Tehama County",2261,"california/corning",3.547,-122.182,39.9282,"City",541
7965,7965,7846,7764,7487,7295,0.01517,"South","Woodlake","CA","California","6107","Tulare County",2796,"california/woodlake",2.849,-119.101,36.4128,"City",542
7956,7956,7994,8032,8681,8485,-0.00475,"Southeast","Midway City","CA","California","6059","Orange County",13064,"california/midway-city",0.609,-117.985,33.7451,"CDP",543
7956,7956,8033,8089,8263,8066,-0.00959,"Southeast","Rolling Hills Estates","CA","California","6037","Los Angeles County",2224,"california/rolling-hills-estates",3.577,-118.327,33.7784,"City",544
7910,7910,7910,7910,7930,7912,0,"Northwest","Gold River","CA","California","6067","Sacramento County",2976,"california/gold-river",2.658,-121.249,38.6269,"CDP",545
7909,7909,7948,8006,8063,7660,-0.00491,"Southwest","Pismo Beach","CA","California","6079","San Luis Obispo County",2262,"california/pismo-beach",3.497,-120.674,35.1532,"City",546
7867,7867,7760,7652,8026,6362,0.01379,"Southeast","Cherry Valley","CA","California","6065","Riverside County",982,"california/cherry-valley",8.011,-116.969,33.9796,"CDP",547
7860,7860,7694,7646,7195,6621,0.02158,"Northwest","Winters","CA","California","6113","Yolo County",2678,"california/winters",2.935,-121.975,38.5333,"City",548
7820,7820,7700,7581,7709,6149,0.01558,"West","Franklin","CA","California","6047","Merced County",3862,"california/franklin-merced-county",2.025,-120.532,37.3275,"CDP",549
7812,7812,7808,7867,7795,7791,0.00051,"Northwest","Yreka","CA","California","6093","Siskiyou County",783,"california/yreka",9.983,-122.632,41.724,"City",550
7746,7746,7683,7572,7493,6663,0.0082,"West","Hughson","CA","California","6099","Stanislaus County",4064,"california/hughson",1.906,-120.866,37.6021,"City",551
7739,7739,7762,7786,8420,8070,-0.00296,"Southeast","South San Gabriel","CA","California","6037","Los Angeles County",9279,"california/south-san-gabriel",0.834,-118.096,34.0478,"CDP",552
7664,7664,7751,7838,10415,8879,-0.01122,"Southeast","Oak Hills","CA","California","6071","San Bernardino County",313,"california/oak-hills",24.516,-117.403,34.3899,"CDP",553
7582,7582,7326,7069,6201,3988,0.03494,"Southeast","Highgrove","CA","California","6065","Riverside County",2357,"california/highgrove",3.217,-117.31,34.0106,"CDP",554
7564,7564,7487,7410,7423,6485,0.01028,"Northwest","Kentfield","CA","California","6041","Marin County",2499,"california/kentfield",3.027,-122.559,37.9359,"CDP",555
7533,7533,7587,7640,8093,8280,-0.00712,"Northwest","Oroville East","CA","California","6007","Butte County",349,"california/oroville-east",21.597,-121.484,39.4936,"CDP",556
7530,7530,7602,7674,8908,8537,-0.00947,"South","Earlimart","CA","California","6107","Tulare County",2594,"california/earlimart",2.903,-119.272,35.8914,"CDP",557
7511,7511,7468,7425,7620,6911,0.00576,"Northwest","Alta Sierra","CA","California","6057","Nevada County",903,"california/alta-sierra-nevada-county",8.321,-121.049,39.1262,"CDP",558
7494,7494,7434,7374,8006,6656,0.00807,"Northwest","Boyes Hot Springs","CA","California","6097","Sonoma County",7070,"california/boyes-hot-springs",1.06,-122.489,38.3126,"CDP",559
7489,7489,7588,7688,8080,8884,-0.01305,"Northwest","Larkfield-Wikiup","CA","California","6097","Sonoma County",1411,"california/larkfield-wikiup",5.308,-122.754,38.513,"CDP",560
7448,7448,7274,7054,6750,5695,0.02392,"South","Fowler","CA","California","6019","Fresno County",2785,"california/fowler",2.674,-119.675,36.6241,"City",561
7448,7448,7376,7305,6999,6447,0.00976,"Southeast","Nuevo","CA","California","6065","Riverside County",1100,"california/nuevo",6.769,-117.141,33.8011,"CDP",562
7431,7431,7573,7684,7997,8302,-0.01875,"Southeast","Westlake Village","CA","California","6037","Los Angeles County",1433,"california/westlake-village",5.187,-118.817,34.1367,"City",563
7416,7416,7331,7247,7378,6234,0.01159,"West","Ben Lomond","CA","California","6087","Santa Cruz County",886,"california/ben-lomond",8.369,-122.088,37.0782,"CDP",564
7410,7410,7466,7525,7632,7479,-0.0075,"South","Ojai","CA","California","6111","Ventura County",1701,"california/ojai",4.356,-119.247,34.4492,"City",565
7376,7376,7430,7449,7590,7286,-0.00727,"Northwest","Cotati","CA","California","6097","Sonoma County",3936,"california/cotati",1.874,-122.71,38.3285,"City",566
7360,7360,7417,7465,7586,7452,-0.00769,"Northwest","Fairfax","CA","California","6041","Marin County",3303,"california/fairfax-marin-county",2.228,-122.595,37.9885,"Town",567
7335,7335,7380,7435,7515,7474,-0.0061,"Northwest","Sebastopol","CA","California","6097","Sonoma County",3897,"california/sebastopol",1.882,-122.828,38.4,"City",568
7317,7317,7355,7410,7469,7134,-0.00517,"Northwest","Escalon","CA","California","6077","San Joaquin County",3212,"california/escalon",2.278,-121,37.7913,"City",569
